frame_idx,id,l,t,r,b,pt0_x,pt0_y,pt1_x,pt1_y,pt2_x,pt2_y,pt3_x,pt3_y,pt4_x,pt4_y,pt5_x,pt5_y,pt6_x,pt6_y,pt7_x,pt7_y,physical_x,physical_y,physical_z,overlap,velocity_x,velocity_y,velocity_z,acceleration_x,acceleration_y,acceleration_z,number_of_wheels,camera_w,camera_h,camera_fov,camera_x,camera_y,camera_z,camera_pitch,camera_yaw,camera_roll,cloudyness,precipitation,sun_altitude_angle,wind_intensity
313171.0,3998.0,43.09847629175695,175.11179900672613,95.68503993853749,195.17773911338708,59.750223904225955,189.95525040675534,95.68503993853749,186.50504417864647,87.18521848052265,191.67880840002803,50.81674336209302,195.17773911338708,52.189985896354756,178.56989420869536,88.4109819939243,175.11179900672613,79.76009878981148,180.1915508534994,43.09847629175695,183.69868576995242,5.043785095214844,2.0999999046325684,1.640134572982788,0.25925925925925924,0.17564350366592407,0.06134145334362984,-1.2667293548583984,0.010457574389874935,-0.5814529061317444,1.792102375475224e-05,4.0,1920.0,1080.0,90.0,0.0,0.0,50.0,-39.999996185302734,5.000004768371582,4.000001907348633,15.0,0.0,15.0,0.3499999940395355
313171.0,4003.0,924.093889620718,224.24338845371008,942.2438204264411,248.56314908327053,939.4264417477314,235.25633072213392,942.2438204264411,246.94846030577466,927.5996387358647,248.56314908327053,925.1205307668621,236.8261133944321,938.5095736214781,224.24338845371008,941.3270032838898,235.7631467400335,926.5677748918619,237.38313961164363,924.093889620718,225.81811846438944,3.8021926879882812,1.8799999952316284,1.4750006198883057,0.8333333333333334,-0.004404699895530939,0.007667340338230133,-1.7557011842727661,-0.18933992087841034,-0.0033465949818491936,-1.067396283360722e-06,4.0,1920.0,1080.0,90.0,0.0,0.0,50.0,-39.999996185302734,5.000004768371582,4.000001907348633,15.0,0.0,15.0,0.3499999940395355
313171.0,4005.0,493.14574803898336,422.9150453452965,555.9214946131004,453.1865153395344,550.3721099134754,453.1865153395344,496.9795905846003,451.64265194450167,503.57405553345893,438.2469912783773,555.9214946131004,439.85359040399715,547.2142972873595,437.8481732412185,493.14574803898336,436.1763976829965,499.8925612903179,422.9150453452965,552.8897015417608,424.6469506868672,4.639087677001953,2.1934540271759033,1.6781779527664185,0.046370967741935484,0.9698209762573242,0.03346297889947891,-0.002478888723999262,0.0014364843955263495,-0.03700970858335495,0.008074934594333172,4.0,1920.0,1080.0,90.0,0.0,0.0,50.0,-39.999996185302734,5.000004768371582,4.000001907348633,15.0,0.0,15.0,0.3499999940395355
313171.0,4009.0,830.6382863623312,74.30615041538299,842.4194992660401,91.3281168303089,832.1200283426701,91.3281168303089,831.9011077966969,84.19064791590496,841.9867802016896,83.15665649699869,842.4194992660401,90.26896295811724,830.8314968975185,82.33084010831637,830.6382863623312,75.34190487283546,840.7802201159932,74.30615041538299,841.189646689618,81.26981134262404,4.993165969848633,1.9416874647140503,1.5796955823898315,1.0,0.03737158328294754,-0.3376236855983734,-1.2447019815444946,-0.40696772933006287,-0.00718255341053009,8.14591930975439e-06,4.0,1920.0,1080.0,90.0,0.0,0.0,50.0,-39.999996185302734,5.000004768371582,4.000001907348633,15.0,0.0,15.0,0.3499999940395355
313171.0,2532.0,1101.122966797776,946.3222020391795,1218.3997570613617,1050.538502375992,1111.9240289620996,969.4663583998743,1213.238182579016,998.8146259147002,1206.0981136135683,1050.538502375992,1101.122966797776,1018.4741331628738,1113.6069886831197,946.3222020391795,1218.3997570613617,975.931837434965,1211.2195704551234,1028.539896340165,1102.504557542266,996.0831192654422,5.1992292404174805,2.6150190830230713,2.4768505096435547,1.0,0.14922499656677246,0.11800741404294968,-11.086620330810547,-0.03825287148356438,-0.3149428367614746,-6.539207970490679e-05,4.0,1920.0,1080.0,90.0,0.0,0.0,50.0,-39.999996185302734,5.000004768371582,4.000001907348633,15.0,0.0,15.0,0.3499999940395355
313171.0,4011.0,899.2660952388017,240.62858181251343,917.8850877821063,267.454291340892,915.0630739784775,250.48035547466836,917.8850877821063,265.777601192327,902.7447065669451,267.454291340892,900.365271149174,252.0979811034667,914.0658441337632,240.62858181251343,916.8775372451074,255.73457095595836,901.6289551904775,257.416458814736,899.2660952388017,242.250968467781,4.679999828338623,1.8799999952316284,1.2999999523162842,0.9841269841269841,-0.009583472274243832,0.18375304341316223,2.379262924194336,-0.27498042583465576,-0.003331209300085902,-2.4156861400115304e-06,4.0,1920.0,1080.0,90.0,0.0,0.0,50.0,-39.999996185302734,5.000004768371582,4.000001907348633,15.0,0.0,15.0,0.3499999940395355
313171.0,2539.0,908.4122397069006,12.692312937395034,929.6398650997862,25.773701069464018,909.2488985372039,23.86871910234204,928.9879151915353,21.94246353968245,929.6398650997862,23.833011958219064,909.7676706964645,25.773701069464018,908.4122397069006,14.622528667208085,928.2620037235065,12.692312937395034,928.9126766301735,14.530541014040592,908.9282311394608,16.475259701281065,4.519999980926514,1.9199999570846558,1.8871309757232666,0.9142857142857143,0.011238275095820427,-8.848692959873006e-05,0.028122272342443466,0.0012067715870216489,-0.01595742627978325,3.0336525469465414e-06,4.0,1920.0,1080.0,90.0,0.0,0.0,50.0,-39.999996185302734,5.000004768371582,4.000001907348633,15.0,0.0,15.0,0.3499999940395355
313171.0,4024.0,1252.424925955942,137.8977105528102,1279.565357966262,157.66486624131284,1264.5408998683718,157.66486624131284,1252.424925955942,147.04897506842767,1265.9927327333096,145.50833562720615,1278.4620945056747,156.07422833116246,1265.574466568117,149.90457555713124,1253.3715378225072,139.43982304113328,1267.0055405631765,137.8977105528102,1279.565357966262,148.31229660015427,4.827845573425293,2.0606582164764404,1.0880357027053833,0.7571428571428571,-0.015142860822379589,-0.20449024438858032,2.212603807449341,-0.007492685690522194,-0.0006359682884067297,3.1179210054688156e-05,4.0,1920.0,1080.0,90.0,0.0,0.0,50.0,-39.999996185302734,5.000004768371582,4.000001907348633,15.0,0.0,15.0,0.3499999940395355
313171.0,4032.0,797.5893052870773,606.720018093138,827.6977563131322,669.6330302894456,801.3947307757577,669.6330302894456,802.36041193185,624.6628693986407,827.3884962938896,621.5120142240959,827.6977563131322,666.2701718765592,797.5893052870773,654.7684796380277,798.7556146577087,609.8986410869103,824.1381950860083,606.720018093138,824.2841456991438,651.3734139061473,4.538333415985107,1.8700960874557495,1.5373616218566895,1.0,0.01633978635072708,-0.04963912442326546,2.13944149017334,0.31401994824409485,0.005359578412026167,-3.370725380591466e-06,4.0,1920.0,1080.0,90.0,0.0,0.0,50.0,-39.999996185302734,5.000004768371582,4.000001907348633,15.0,0.0,15.0,0.3499999940395355
313171.0,4035.0,971.15201410265,687.8947212465791,1005.7661718385808,750.8998105380699,997.2118865932628,703.0394368985108,1005.7661718385808,747.2964854442243,979.9587398445765,750.8998105380699,972.5312968003485,706.4298595365177,996.2185664083229,687.8947212465791,1004.8657858849492,732.1644007472712,978.6360402477983,735.8068582307694,971.15201410265,691.3191904005978,3.7186214923858643,1.6750779151916504,1.5354934930801392,1.0,-0.025775769725441933,0.3049813508987427,-9.177125321002677e-05,-0.0008106130408123136,-0.00027584502822719514,0.019768519327044487,4.0,1920.0,1080.0,90.0,0.0,0.0,50.0,-39.999996185302734,5.000004768371582,4.000001907348633,15.0,0.0,15.0,0.3499999940395355
313171.0,2558.0,868.1575394803915,41.91151170602967,878.7771429893191,55.28217831973994,877.7204265646892,48.58214299753122,878.7771429893191,54.3763004745928,869.828874880096,55.28217831973994,868.9380815497816,49.468971646022666,876.976128049303,41.91151170602967,878.0231016523776,47.60301787475678,869.0372046085491,48.51003053417971,868.1575394803915,42.7994153280448,4.908750057220459,1.8559374809265137,1.2799999713897705,0.7714285714285715,-0.01779533177614212,1.140760898590088,-0.10583239048719406,0.6690389513969421,0.01162450946867466,0.0006384153966791928,4.0,1920.0,1080.0,90.0,0.0,0.0,50.0,-39.999996185302734,5.000004768371582,4.000001907348633,15.0,0.0,15.0,0.3499999940395355
313171.0,4036.0,569.1601359585009,407.3791453213407,616.0667302928305,430.9242262684775,576.0631190386024,421.0978096319666,616.0667302928305,421.390993759195,612.8362639615455,430.9242262684775,572.2537084618714,430.6707472987113,573.0535778484132,407.3791453213407,613.4948816529856,407.73802131456,610.1932052282729,417.18002318975306,569.1601359585009,416.85992072592546,3.7186214923858643,1.6750779151916504,1.5354934930801392,0.9637681159420289,-6.273720741271973,-0.23705002665519714,0.053306613117456436,0.05427021533250809,-1.1189526319503784,0.1982416957616806,4.0,1920.0,1080.0,90.0,0.0,0.0,50.0,-39.999996185302734,5.000004768371582,4.000001907348633,15.0,0.0,15.0,0.3499999940395355
313171.0,4037.0,223.36515007965733,220.06200795487018,259.86607714950725,246.85359962754808,230.76589108203314,246.85359962754808,246.0958006521506,234.04929603510087,259.86607714950725,232.63884130432464,244.9013998283919,245.40035056821586,223.36515007965733,234.06766015572143,239.01763036373032,221.47880534804432,252.9109967586107,220.06200795487018,237.63039188878025,232.6076243819045,3.9753477573394775,1.6926450729370117,1.6096727848052979,0.902834008097166,0.0037720901891589165,0.012872457504272461,2.479788303375244,0.3110658526420593,0.007072152569890022,1.6067124306573533e-05,4.0,1920.0,1080.0,90.0,0.0,0.0,50.0,-39.999996185302734,5.000004768371582,4.000001907348633,15.0,0.0,15.0,0.3499999940395355
313171.0,2564.0,1751.8434418853146,97.41891352620647,1795.4964475841118,123.25654145645001,1776.969767179754,123.25654145645001,1751.8434418853146,113.68562112593581,1762.9191268848217,112.29169338671846,1788.3018031202982,121.81780596532735,1784.060063680413,108.09528198575424,1758.515312852166,98.81177411904409,1769.69068696425,97.41891352620647,1795.4964475841118,106.65748644270893,4.519045829772949,1.7303744554519653,2.0264482498168945,0.3356643356643357,0.016571972519159317,0.505429208278656,2.4260547161102295,-0.39487746357917786,-0.01159035786986351,-0.0022920691408216953,4.0,1920.0,1080.0,90.0,0.0,0.0,50.0,-39.999996185302734,5.000004768371582,4.000001907348633,15.0,0.0,15.0,0.3499999940395355
313171.0,4044.0,897.7293993892476,104.61711728182955,913.372849238574,124.27412126195468,911.4057384114167,114.86501634301024,913.372849238574,122.92560137259483,900.4761815606262,124.27412126195468,898.7844475283208,116.1801436372053,910.4336963371607,104.61711728182955,912.3925108074358,112.5056262534024,899.4091628922441,113.85718824991854,897.7293993892476,105.93509921563232,4.639087677001953,2.1934540271759033,1.6781779527664185,0.746031746031746,-0.0010571524035185575,0.12753628194332123,-0.06799115985631943,-0.2769694924354553,-0.004060798790305853,-3.5392613426665775e-06,4.0,1920.0,1080.0,90.0,0.0,0.0,50.0,-39.999996185302734,5.000004768371582,4.000001907348633,15.0,0.0,15.0,0.3499999940395355
313171.0,2568.0,477.375344048343,82.27335109594274,510.32409639392296,101.27138346743374,481.0299661267115,100.85413289700703,501.30075958488527,92.15195298501982,510.32409639392296,92.52900318534805,490.1772366049137,101.27138346743374,477.375344048343,90.81307693176271,497.85071953012994,82.27335109594274,506.91779819686616,82.61707818290509,486.5673575604495,91.19592381792016,4.993165969848633,1.9416874647140503,1.5796955823898315,0.90625,0.0,0.0,0.0,0.0,0.0,0.0,4.0,1920.0,1080.0,90.0,0.0,0.0,50.0,-39.999996185302734,5.000004768371582,4.000001907348633,15.0,0.0,15.0,0.3499999940395355
313171.0,4051.0,1010.3588371549894,4.922516280857719,1032.8912049437727,14.246665421547302,1010.5114069649957,12.291082163330737,1031.4525836749615,10.264515777509322,1032.8912049437727,12.203876800100236,1011.7993627890075,14.246665421547302,1010.3588371549894,6.95136918924596,1031.3671317639787,4.922516280857719,1032.8097681759205,6.829309010457886,1011.6498372820339,8.874427295874868,4.827845573425293,2.0606582164764404,1.0880357027053833,0.23636363636363636,-0.009116691537201405,-0.0009545989450998604,-0.2249762862920761,-0.006114847492426634,0.25896400213241577,-2.247150177936419e-06,4.0,1920.0,1080.0,90.0,0.0,0.0,50.0,-39.999996185302734,5.000004768371582,4.000001907348633,15.0,0.0,15.0,0.3499999940395355
313171.0,4054.0,930.9196519616219,19.20880487370433,954.1740572883716,29.6362064855046,954.1740572883716,27.514853698790056,932.0656451006397,29.6362064855046,931.4050086593444,27.72227922619631,953.3667273343298,25.61664892089359,953.7746142345911,21.07127998988006,931.5795966358749,23.195482019148333,930.9196519616219,21.317234315428653,952.9668283317491,19.20880487370433,4.908750057220459,1.8559374809265137,1.2799999713897705,0.8909090909090909,0.43470486998558044,0.010903459042310715,-0.003065145341679454,7.839998579584062e-05,0.0005941893323324621,0.00011949222243856639,4.0,1920.0,1080.0,90.0,0.0,0.0,50.0,-39.999996185302734,5.000004768371582,4.000001907348633,15.0,0.0,15.0,0.3499999940395355
313171.0,4057.0,1347.5838441666995,195.09684317786065,1380.695241072343,220.53310040130822,1361.7085247728853,205.13717957138707,1378.4636540967747,218.80797120089247,1363.9320379149667,220.53310040130822,1347.5838441666995,206.80082760403408,1363.7611116437652,195.09684317786065,1380.695241072343,208.56198815181662,1366.0636798740911,210.29027617348945,1349.5420199681105,196.76331352139488,4.679999828338623,1.8799999952316284,1.2999999523162842,0.8942307692307693,0.0015020199352875352,0.27811571955680847,0.09438176453113556,-0.40625694394111633,0.0005518562393262982,7.235822704387829e-05,4.0,1920.0,1080.0,90.0,0.0,0.0,50.0,-39.999996185302734,5.000004768371582,4.000001907348633,15.0,0.0,15.0,0.3499999940395355
313171.0,4062.0,792.0228166402392,745.7685243336351,829.320025024717,825.1718849330966,795.246815273576,825.1718849330966,797.0567287748768,760.599849472002,829.0773534375019,756.4398141232996,829.320025024717,820.652596421363,792.0228166402392,814.6264309593308,794.04980947656,749.961337295126,826.438855331541,745.7685243336351,826.5135021007075,810.0677532560813,4.827845573425293,2.0606582164764404,1.0880357027053833,1.0,-0.03864828869700432,-1.117987871170044,0.5378386974334717,0.15078362822532654,-0.03637517988681793,0.00018162593187298626,4.0,1920.0,1080.0,90.0,0.0,0.0,50.0,-39.999996185302734,5.000004768371582,4.000001907348633,15.0,0.0,15.0,0.3499999940395355
313171.0,4072.0,1138.6189160920976,3.3270549402349743,1162.060679463352,14.113650991141371,1161.731927584325,11.736189131340302,1140.706872472529,14.113650991141371,1138.6189160920976,12.2795268944225,1159.502603282342,9.919263266708574,1162.060679463352,5.106015691928894,1140.9521370689636,7.489011902863679,1138.8542560779126,5.692769570496629,1159.8203094451972,3.3270549402349743,4.679999828338623,1.8799999952316284,1.2999999523162842,0.9833333333333333,2.004168748855591,0.03917009383440018,-0.017141258344054222,-0.09621846675872803,3.9077320098876953,0.005552425980567932,4.0,1920.0,1080.0,90.0,0.0,0.0,50.0,-39.999996185302734,5.000004768371582,4.000001907348633,15.0,0.0,15.0,0.3499999940395355
313171.0,4077.0,829.950821709486,42.46044827622368,839.9488875332328,59.24609485525642,831.6105468806991,59.24609485525642,831.4320266137875,53.84014230224397,839.6278616987129,53.01115206842404,839.9488875332328,58.4007055893175,830.1045749008526,48.54786298739657,829.950821709486,43.290997775651675,838.200366083803,42.46044827622368,838.4985151742272,47.70083381432368,4.519045829772949,1.7303744554519653,2.0264482498168945,1.0,-0.0002571610966697335,0.010816755704581738,-4.7191596763696e-07,5.5665968829998747e-05,1.3172890476198518e-06,0.00023864734976086766,4.0,1920.0,1080.0,90.0,0.0,0.0,50.0,-39.999996185302734,5.000004768371582,4.000001907348633,15.0,0.0,15.0,0.3499999940395355
313171.0,4080.0,1193.230717010301,67.4970327964511,1213.8881185784503,85.15879797840007,1203.2155250682933,76.0237576885838,1213.0903881293934,83.99684054207991,1202.8666165821344,85.15879797840007,1193.230717010301,77.15341832805504,1203.9417780952956,67.4970327964511,1213.8881185784503,75.30342774154691,1203.609290991071,76.46663660908992,1193.9044637553563,68.62783826627297,5.369193077087402,1.832708716392517,1.4150995016098022,0.23232323232323232,0.04082953929901123,0.0011390851577743888,0.00014761277998331934,-2.4382783522014506e-05,7.857951277401298e-05,-0.0010335779516026378,4.0,1920.0,1080.0,90.0,0.0,0.0,50.0,-39.999996185302734,5.000004768371582,4.000001907348633,15.0,0.0,15.0,0.3499999940395355
313171.0,4084.0,1061.4346359291415,-5.58578733350995,1082.4923778502541,7.229561191316943,1061.4346359291415,5.4801483557238075,1080.7176455648453,3.600911870612341,1082.3643475342983,5.336580432856772,1062.9542708174079,7.229561191316943,1061.4471119508776,-3.702829312079491,1080.835800580689,-5.58578733350995,1082.4923778502541,-3.9019348657494026,1062.9752209271217,-2.0051691880438662,4.519999980926514,1.9199999570846558,1.8871309757232666,,0.004607910756021738,0.008332240395247936,-1.679972712054223e-07,1.1178589147675666e-06,5.743660125290262e-08,0.0002906685695052147,4.0,1920.0,1080.0,90.0,0.0,0.0,50.0,-39.999996185302734,5.000004768371582,4.000001907348633,15.0,0.0,15.0,0.3499999940395355
313171.0,4086.0,883.3941314987877,135.21692457569142,896.2972165592994,153.79449928879407,894.9105398778223,145.10393751672783,896.2972165592994,152.66553523235535,885.7247203427607,153.79449928879407,884.5325097522391,146.20866607417395,893.8396008657314,135.21692457569142,895.2151326841507,142.64119979787915,884.5726375791559,143.77295865562508,883.3941314987877,136.32430187626147,3.7186214923858643,1.6750779151916504,1.5354934930801392,1.0,0.015898825600743294,0.0028310283087193966,2.7401360966905486e-06,-0.00010502573422854766,0.0011583059094846249,-0.01960880123078823,4.0,1920.0,1080.0,90.0,0.0,0.0,50.0,-39.999996185302734,5.000004768371582,4.000001907348633,15.0,0.0,15.0,0.3499999940395355
313171.0,4089.0,344.40289545244195,154.70357052207908,387.6777547053224,170.49352592446152,382.73831408042025,167.4518507155533,347.9951601527074,170.49352592446152,353.33492305783983,165.38971157542835,387.6777547053224,162.39115618996667,379.33418416364026,159.70277813140368,344.40289545244195,162.74665384775582,349.81103866442555,157.7041858372449,384.3376862721081,154.70357052207908,4.827845573425293,2.0606582164764404,1.0880357027053833,0.07954545454545454,-0.0995163545012474,0.10408466309309006,-0.01447612326592207,-0.0017231974052265286,0.04831177368760109,-0.043862294405698776,4.0,1920.0,1080.0,90.0,0.0,0.0,50.0,-39.999996185302734,5.000004768371582,4.000001907348633,15.0,0.0,15.0,0.3499999940395355
313171.0,4090.0,961.6648150229714,635.8320861569314,998.5940830582202,704.8250153134094,988.7926077510988,648.4474329780702,998.5940830582202,701.2339021809904,971.1511015839783,704.8250153134094,962.8534564621557,651.7795136082121,987.9224659418825,635.8320861569314,997.7994091884009,688.5562192489174,969.9996723321336,692.1782401245848,961.6648150229714,639.1902494215907,4.908750057220459,1.8559374809265137,1.2799999713897705,1.0,-0.029215436428785324,-0.08725403249263763,-1.329661245108582e-05,-0.0004094387113582343,-0.00016980095824692398,-0.06671366840600967,4.0,1920.0,1080.0,90.0,0.0,0.0,50.0,-39.999996185302734,5.000004768371582,4.000001907348633,15.0,0.0,15.0,0.3499999940395355
313171.0,4091.0,884.6266205025343,39.69985549513015,895.5711398708016,53.92584940798502,894.2957047727735,47.69594512601852,895.5711398708016,53.014503675910156,886.6044213039474,53.92584940798502,885.4820573222421,48.589626968743566,893.4838283139469,39.69985549513015,894.7514170249757,44.90498893561058,885.739607982476,45.81767886500894,884.6266205025343,40.59481579752756,4.538333415985107,1.8700960874557495,1.5373616218566895,1.0,-0.053975701332092285,0.23427948355674744,5.2123468776699156e-05,-0.0004961825325153768,-0.0005591074586845934,-0.07610872387886047,4.0,1920.0,1080.0,90.0,0.0,0.0,50.0,-39.999996185302734,5.000004768371582,4.000001907348633,15.0,0.0,15.0,0.3499999940395355
313171.0,4093.0,813.55379841472,40.063758474262904,823.3980273375711,52.87660054744481,814.5607421377138,52.87660054744481,814.6765479650577,47.54164403616374,823.3612322726378,46.6703721638338,823.3980273375711,51.987942871919685,813.55379841472,46.176372155029355,813.6875324211676,40.93601119445812,822.4077164272098,40.063758474262904,822.4278444615255,45.28668183685906,4.679999828338623,1.8799999952316284,1.2999999523162842,1.0,0.10555286705493927,-0.06556802988052368,2.8128288249718025e-05,0.0002064940781565383,0.001035461202263832,-0.1316288262605667,4.0,1920.0,1080.0,90.0,0.0,0.0,50.0,-39.999996185302734,5.000004768371582,4.000001907348633,15.0,0.0,15.0,0.3499999940395355
313171.0,4095.0,1411.8263585224179,243.20274879360832,1449.1445784810658,270.8547136468685,1424.1593424851533,255.8401354094848,1445.5841242032536,268.1188083525845,1433.0050276317977,270.8547136468685,1411.8263585224179,258.4733680492999,1427.4423004183218,243.20274879360832,1449.1445784810658,255.2734870827497,1436.4616178490958,257.99575389010397,1415.0093938977539,245.8223769351928,3.6688475608825684,1.664003849029541,1.5232137441635132,0.9586466165413534,1.1769351959228516,0.5024298429489136,-0.001883090240880847,0.00022331210493575782,0.0022917166352272034,-0.20195326209068298,4.0,1920.0,1080.0,90.0,0.0,0.0,50.0,-39.999996185302734,5.000004768371582,4.000001907348633,15.0,0.0,15.0,0.3499999940395355
313173.0,3998.0,38.842589594828695,175.53814504262925,91.52381097615441,195.61480474111917,55.58170738825124,190.38643351025937,91.52381097615441,186.9299756136031,82.97269866435992,192.10956317299895,46.596741820138405,195.61480474111917,47.98642272389525,179.00261352500684,84.21482144934008,175.53814504262925,75.51181339355846,180.62376350635168,38.842589594828695,184.13733349077432,5.043785095214844,2.0999999046325684,1.640134572982788,0.35384615384615387,0.0444829948246479,0.05762654170393944,-1.4165754318237305,0.0028386786580085754,-0.14089897274971008,-3.630594846981694e-06,4.0,1920.0,1080.0,90.0,0.0,0.0,50.0,-39.999996185302734,5.000004768371582,4.000001907348633,15.0,0.0,15.0,0.3499999940395355
313173.0,4003.0,923.7360594259939,222.56880703998152,941.8166724389159,246.78028819359238,939.0183947659611,233.55538343420224,941.8166724389159,245.17248177619467,927.2240552458661,246.78028819359238,924.7616336539166,235.11865268267104,938.1018672950345,222.56880703998152,940.9000654034426,234.01426862224523,926.1931824216214,235.62732770619118,923.7360594259939,224.13697690891217,3.8021926879882812,1.8799999952316284,1.4750006198883057,1.0,-0.007398718502372503,0.06848232448101044,-1.7913382053375244,-0.07636167109012604,-0.0009520080056972802,-1.1429650612626574e-06,4.0,1920.0,1080.0,90.0,0.0,0.0,50.0,-39.999996185302734,5.000004768371582,4.000001907348633,15.0,0.0,15.0,0.3499999940395355
313173.0,4005.0,501.3856041944547,423.2009087134199,563.8172812962807,453.32618681752626,558.4239501236536,453.32618681752626,505.1692153150501,451.90105662754644,511.6023566911234,438.51478204736907,563.8172812962807,440.00354500359265,555.3136936218652,438.00327754457305,501.3856041944547,436.4533525222759,507.96808243465335,423.2009087134199,560.8301992169517,424.81194867601494,4.639087677001953,2.1934540271759033,1.6781779527664185,0.01935483870967742,2.2098326683044434,0.07719685882329941,-0.004919528029859066,0.0003444176400080323,-0.01009058952331543,0.056151073426008224,4.0,1920.0,1080.0,90.0,0.0,0.0,50.0,-39.999996185302734,5.000004768371582,4.000001907348633,15.0,0.0,15.0,0.3499999940395355
313173.0,4009.0,830.6597866092593,75.09144905816379,842.4719103817644,92.18847029473505,832.1472758397408,92.18847029473505,831.9254657561027,84.99390556312507,842.0354056592627,83.95723066878386,842.4719103817644,91.1265058983547,830.8557975102497,83.17573287656764,830.6597866092593,76.1299082962854,840.8263121373529,75.09144905816379,841.2394535310757,82.1118707552153,4.993165969848633,1.9416874647140503,1.5796955823898315,1.0,0.028551297262310982,-0.46599796414375305,-0.9443158507347107,-0.2998749315738678,-0.00436485605314374,3.3168400932481745e-06,4.0,1920.0,1080.0,90.0,0.0,0.0,50.0,-39.999996185302734,5.000004768371582,4.000001907348633,15.0,0.0,15.0,0.3499999940395355
313173.0,2532.0,1090.2340397866353,944.861142781539,1206.0018695012845,1046.526309635902,1100.2029370211749,967.9608814404729,1201.2789813321203,994.7580621785322,1195.028239487512,1046.526309635902,1090.2340397866353,1017.2019509097483,1101.4806428882675,944.861142781539,1206.0018695012845,971.8793932009547,1199.7258988702772,1024.5240420043976,1091.223259477137,994.8575982721783,5.1992292404174805,2.6150190830230713,2.4768505096435547,1.0,0.18478776514530182,-0.170389786362648,-15.59384536743164,-0.31352749466896057,-0.18504159152507782,-1.2482969395932741e-05,4.0,1920.0,1080.0,90.0,0.0,0.0,50.0,-39.999996185302734,5.000004768371582,4.000001907348633,15.0,0.0,15.0,0.3499999940395355
313173.0,4011.0,898.9897338124805,238.87260098841938,917.5340219284034,265.55062054935996,914.7333759543391,248.70279968569304,917.5340219284034,263.88132405432043,902.4481790373385,265.55062054935996,900.0870742336423,250.31352145526304,913.7372328769993,238.87260098841938,916.527464199812,253.86027669161442,901.3342364531638,255.53471091583592,898.9897338124805,240.48803030533057,4.679999828338623,1.8799999952316284,1.2999999523162842,1.0,-0.013822189532220364,0.13733460009098053,2.456162691116333,-0.11666855216026306,-0.002081854734569788,-1.9049417687710957e-06,4.0,1920.0,1080.0,90.0,0.0,0.0,50.0,-39.999996185302734,5.000004768371582,4.000001907348633,15.0,0.0,15.0,0.3499999940395355
313173.0,2539.0,905.81084193232,12.945826831693758,927.039278690795,26.029364417654126,906.6622272098978,24.122461141947635,926.4049943061847,22.195431111056898,927.039278690795,24.08789430441915,907.1632820837875,26.029364417654126,905.81084193232,14.876829519976113,925.6643981557589,12.945826831693758,926.297206239264,14.785979032348061,906.3089159126769,16.731491389288593,4.519999980926514,1.9199999570846558,1.8871309757232666,0.8831168831168831,0.013217591680586338,0.0001622812560526654,-0.003043649485334754,-0.0018604821525514126,0.019664516672492027,-1.5687754739701631e-06,4.0,1920.0,1080.0,90.0,0.0,0.0,50.0,-39.999996185302734,5.000004768371582,4.000001907348633,15.0,0.0,15.0,0.3499999940395355
313173.0,4024.0,1253.8731331471217,139.14985309144666,1281.1477991999395,159.02251705619332,1266.066389053313,159.02251705619332,1253.8731331471217,148.32445563074654,1267.4830972574641,146.77775743310974,1280.0318496055404,157.425438687874,1267.1121652687027,151.24451503911646,1254.8309518665214,140.69804817348557,1268.5075549364283,139.14985309144666,1281.1477991999395,149.6457689326095,4.827845573425293,2.0606582164764404,1.0880357027053833,0.9230769230769231,-0.010325354523956776,-0.22020086646080017,2.2316040992736816,0.02743237093091011,0.00022539585188496858,1.7480637097833096e-06,4.0,1920.0,1080.0,90.0,0.0,0.0,50.0,-39.999996185302734,5.000004768371582,4.000001907348633,15.0,0.0,15.0,0.3499999940395355
313173.0,4032.0,797.4328959735051,612.2101377648316,827.7423331804911,675.7480787690951,801.265723631488,675.7480787690951,802.242110016621,630.1947791510013,827.4273727212524,627.0177976172412,827.7423331804911,672.3556747126083,797.4328959735051,660.8756725061285,798.612686989454,615.4154129014524,824.1569706267313,612.2101377648316,824.306577220958,657.450418950909,4.538333415985107,1.8700960874557495,1.5373616218566895,1.0,0.016033437103033066,-0.02344278059899807,2.2050490379333496,0.11745867878198624,0.0016098653431981802,1.8377085098109092e-06,4.0,1920.0,1080.0,90.0,0.0,0.0,50.0,-39.999996185302734,5.000004768371582,4.000001907348633,15.0,0.0,15.0,0.3499999940395355
313173.0,4035.0,971.1530052506353,687.9031227770236,1005.7664255684891,750.8996155762546,997.213075327725,703.054904904514,1005.7664255684891,747.2967928318812,979.9588649535068,750.8996155762546,972.5327517971991,706.4447871334633,996.2190865370349,687.9031227770236,1004.8652370322026,732.1564464893619,978.6355735464033,735.7983438980284,971.1530052506353,691.3269984175652,3.7186214923858643,1.6750779151916504,1.5354934930801392,1.0,-0.01702219247817993,0.20175553858280182,-3.806194581557065e-05,-0.0002825298288371414,-7.659222319489345e-05,0.005342744756489992,4.0,1920.0,1080.0,90.0,0.0,0.0,50.0,-39.999996185302734,5.000004768371582,4.000001907348633,15.0,0.0,15.0,0.3499999940395355
313173.0,2558.0,868.0663412899835,41.34470675392024,878.6622342657588,54.63357236656259,877.6114366487773,48.007454587243345,878.6622342657588,53.72937830876355,869.7314083131677,54.63357236656259,868.8461548111804,48.89266183813816,876.8676449243079,41.34470675392024,877.9086712479776,46.96377285491665,868.9404470817576,47.86907909203166,868.0663412899835,42.2309674761313,4.908750057220459,1.8559374809265137,1.2799999713897705,1.0,-0.011424204334616661,0.9491668939590454,-0.08789549022912979,0.3088509440422058,0.004470617510378361,0.005672983825206757,4.0,1920.0,1080.0,90.0,0.0,0.0,50.0,-39.999996185302734,5.000004768371582,4.000001907348633,15.0,0.0,15.0,0.3499999940395355
313173.0,4036.0,562.0792428661925,407.22829395753905,609.1455248833133,431.07830007587023,569.0252439187966,420.94761754248935,609.1455248833133,421.51780358820747,605.8169467257486,431.07830007587023,565.1150170058086,430.54610377673447,566.0737927449898,407.22829395753905,606.6336670934446,407.87003939070945,603.2336646739059,417.3398220459575,562.0792428661925,416.73501574770484,3.7186214923858643,1.6750779151916504,1.5354934930801392,1.0,-4.3211259841918945,-0.57448410987854,0.14024576544761658,0.004858621396124363,-0.2763976454734802,0.0951540395617485,4.0,1920.0,1080.0,90.0,0.0,0.0,50.0,-39.999996185302734,5.000004768371582,4.000001907348633,15.0,0.0,15.0,0.3499999940395355
313173.0,4037.0,221.16886347646766,221.73445973971485,257.87082184306445,248.64774831477763,228.61458622445556,248.64774831477763,244.05119214273498,235.7576895921562,257.87082184306445,234.34102307312236,242.80214137627556,247.18791273857738,221.16886347646766,235.8312861446774,236.93125229376233,223.1575145182017,250.8748422997124,221.73445973971485,235.48709474472187,234.36461281771776,3.9753477573394775,1.6926450729370117,1.6096727848052979,0.9172932330827067,-0.0035592461936175823,0.12389383465051651,1.756156325340271,-0.11873071640729904,-0.003992901649326086,-3.630594846981694e-06,4.0,1920.0,1080.0,90.0,0.0,0.0,50.0,-39.999996185302734,5.000004768371582,4.000001907348633,15.0,0.0,15.0,0.3499999940395355
313173.0,2564.0,1754.996188257303,98.5970688307097,1798.8392667957917,124.50858601763271,1780.2029084179135,124.50858601763271,1754.996188257303,114.8993991105933,1766.1359297587169,113.51013768316633,1791.6025904973555,123.07472539644223,1787.3341642863747,109.30523048815597,1761.7059666206555,99.98564763530672,1772.9463823466688,98.5970688307097,1798.8392667957917,107.87191006931397,4.519045829772949,1.7303744554519653,2.0264482498168945,0.33916083916083917,0.011563616804778576,0.6474564671516418,2.151684284210205,-0.228104367852211,-0.0001619820686755702,-0.001504756510257721,4.0,1920.0,1080.0,90.0,0.0,0.0,50.0,-39.999996185302734,5.000004768371582,4.000001907348633,15.0,0.0,15.0,0.3499999940395355
313173.0,4044.0,897.5001421184998,103.53899002414377,913.0949237100342,123.12013008884753,911.1374646530403,113.76339487067055,913.0949237100342,121.77603441209126,900.2372776534563,123.12013008884753,898.5535410222354,115.07431277222268,910.1665832325107,103.53899002414377,912.1157334999955,111.38028334469108,899.1719287339225,112.72738827814518,897.5001421184998,104.85273210061683,4.639087677001953,2.1934540271759033,1.6781779527664185,0.975,0.004420838784426451,0.11449302732944489,-0.5454172492027283,-0.10358446836471558,-0.001455693389289081,3.182373347954126e-06,4.0,1920.0,1080.0,90.0,0.0,0.0,50.0,-39.999996185302734,5.000004768371582,4.000001907348633,15.0,0.0,15.0,0.3499999940395355
313173.0,2568.0,477.375344048343,82.27335109594274,510.32409639392296,101.27138346743374,481.0299661267115,100.85413289700703,501.30075958488527,92.15195298501982,510.32409639392296,92.52900318534805,490.1772366049137,101.27138346743374,477.375344048343,90.81307693176271,497.85071953012994,82.27335109594274,506.91779819686616,82.61707818290509,486.5673575604495,91.19592381792016,4.993165969848633,1.9416874647140503,1.5796955823898315,0.90625,0.0,0.0,0.0,0.0,0.0,0.0,4.0,1920.0,1080.0,90.0,0.0,0.0,50.0,-39.999996185302734,5.000004768371582,4.000001907348633,15.0,0.0,15.0,0.3499999940395355
313173.0,4051.0,1007.5478699223528,5.196713616459007,1030.0742773865702,14.523389803173473,1007.7093585328729,12.565721001899915,1028.6544120403667,10.538383438093673,1030.0742773865702,12.479815799641614,1008.9785050473106,14.523389803173473,1007.5478699223528,7.22632585795765,1028.5600681261917,5.196713616459007,1029.9838239703101,7.105583786352306,1008.8199355410945,9.151475486937159,4.827845573425293,2.0606582164764404,1.0880357027053833,0.09090909090909091,0.0018653118750080466,-0.0050324946641922,-1.3035391569137573,-0.0020827390253543854,0.10323479026556015,-5.602771011581353e-07,4.0,1920.0,1080.0,90.0,0.0,0.0,50.0,-39.999996185302734,5.000004768371582,4.000001907348633,15.0,0.0,15.0,0.3499999940395355
313173.0,4054.0,934.1851483553361,18.88159143848523,957.4465491768934,29.325994560269724,957.4465491768934,27.185312792894617,935.3448988386959,29.325994560269724,934.6624548201693,27.414379756672737,956.6174835359467,25.28952281901273,957.0552507969742,20.741646208531943,934.8670401234601,22.885329774719697,934.1851483553361,21.00939823438633,956.2255904994521,18.88159143848523,4.908750057220459,1.8559374809265137,1.2799999713897705,0.6805555555555556,0.35784414410591125,0.008818688802421093,-0.0018628170946612954,0.0008068808238022029,-0.03384469076991081,2.776732435449958e-05,4.0,1920.0,1080.0,90.0,0.0,0.0,50.0,-39.999996185302734,5.000004768371582,4.000001907348633,15.0,0.0,15.0,0.3499999940395355
313173.0,4057.0,1345.3688472367417,193.27378842367335,1378.2613823283639,218.5485781672528,1359.4386699223073,203.28718069609457,1376.0577412397809,216.8325984955289,1361.5840406989387,218.5485781672528,1345.3688472367417,204.9422897035622,1361.4658023803074,193.27378842367335,1378.2613823283639,206.61421167216565,1363.6885793255806,208.33329848988183,1347.3023453355727,194.931674551105,4.679999828338623,1.8799999952316284,1.2999999523162842,0.9791666666666666,-0.003365738084539771,0.1697390228509903,0.5897396802902222,-0.15818023681640625,0.0001649218174861744,1.600151153979823e-05,4.0,1920.0,1080.0,90.0,0.0,0.0,50.0,-39.999996185302734,5.000004768371582,4.000001907348633,15.0,0.0,15.0,0.3499999940395355
313173.0,4062.0,791.6648795969395,754.8656062919214,829.3222366464528,835.5608785320125,794.924128338703,835.5608785320125,796.8148529957347,769.6934628560384,829.1248087080352,765.5074219094508,829.3222366464528,831.0105120252585,791.6648795969395,825.0671735988969,793.777544618926,759.0854000906538,826.4633354627496,754.8656062919214,826.4892925389968,820.4762182742431,4.827845573425293,2.0606582164764404,1.0880357027053833,1.0,0.008510642684996128,-0.836532711982727,0.4860304594039917,0.09518226981163025,-0.00547938933596015,3.960038156947121e-05,4.0,1920.0,1080.0,90.0,0.0,0.0,50.0,-39.999996185302734,5.000004768371582,4.000001907348633,15.0,0.0,15.0,0.3499999940395355
313173.0,4072.0,1140.4887353018764,3.120246429293525,1163.9374100425657,13.956149177523324,1163.614001353321,11.526967914249699,1142.5892357147752,13.956149177523324,1140.4887353018764,12.123143885149696,1161.3720858436968,9.711452848607768,1163.9374100425657,4.897800813483331,1142.8291436492548,7.332931923105978,1140.7187055548745,5.537798790691074,1161.6844351739915,3.120246429293525,4.679999828338623,1.8799999952316284,1.2999999523162842,0.9833333333333333,0.7737904787063599,0.01393104251474142,0.011924367398023605,-0.031690388917922974,1.2764679193496704,0.001950055593624711,4.0,1920.0,1080.0,90.0,0.0,0.0,50.0,-39.999996185302734,5.000004768371582,4.000001907348633,15.0,0.0,15.0,0.3499999940395355
313173.0,4077.0,829.9508627682228,42.46069826103352,839.9488589511164,59.24588804184738,831.6105164011218,59.24588804184738,831.4320666502878,53.84043673935493,839.6279010339847,53.011448381077834,839.9488589511164,58.40050059924999,830.1045444996421,48.54760131715003,829.9508627682228,43.29124570657634,838.2004050726632,42.46069826103352,838.4984852884288,47.700574154049555,4.519045829772949,1.7303744554519653,2.0264482498168945,1.0,-0.00042732086149044335,0.012698923237621784,-4.6553958554795827e-07,3.818089680862613e-06,3.089606366302178e-07,-8.314509614137933e-06,4.0,1920.0,1080.0,90.0,0.0,0.0,50.0,-39.999996185302734,5.000004768371582,4.000001907348633,15.0,0.0,15.0,0.3499999940395355
313173.0,4080.0,1193.230800420398,67.4966474052473,1213.8879516716231,85.1587405654711,1203.2156427348143,76.02334760364198,1213.0905159837196,83.99637156187076,1202.866706485102,85.1587405654711,1193.230800420398,77.15341196394263,1203.9416079254454,67.4966474052473,1213.8879516716231,75.30298347441209,1203.6090854814902,76.46660841284701,1193.9042587381116,68.62786090733685,5.369193077087402,1.832708716392517,1.4150995016098022,0.23232323232323232,0.020217690616846085,0.0011249490780755877,9.141880582319573e-05,-1.5555444406345487e-05,3.276030474808067e-05,-0.0005988277262076735,4.0,1920.0,1080.0,90.0,0.0,0.0,50.0,-39.999996185302734,5.000004768371582,4.000001907348633,15.0,0.0,15.0,0.3499999940395355
313173.0,4084.0,1061.434654188639,-5.58672722436291,1082.4923303292662,7.228693160791542,1061.434654188639,5.479394041760268,1080.7176745619877,3.599995505137331,1082.3643791489026,5.335549393878565,1062.9542901365114,7.228693160791542,1061.447052961096,-3.7036055257390355,1080.8357510624396,-5.58672722436291,1082.4923303292662,-3.9029909822329256,1062.9751623771208,-2.0060606510468277,4.519999980926514,1.9199999570846558,1.8871309757232666,,0.0035721336025744677,0.005789511371403933,-7.838151105943325e-08,1.8312276779397507e-06,1.8670614565508004e-07,-0.000566708913538605,4.0,1920.0,1080.0,90.0,0.0,0.0,50.0,-39.999996185302734,5.000004768371582,4.000001907348633,15.0,0.0,15.0,0.3499999940395355
313173.0,4086.0,883.3937348922274,135.2154686033427,896.2971319018692,153.79326624311128,894.9104729186265,145.10248301988358,896.2971319018692,152.66389092299246,885.7246716245974,153.79326624311128,884.5324797283212,146.20761719608583,893.8391666132477,135.2154686033427,895.2146734846358,142.6395511953543,884.5722150342068,143.77172669290414,883.3937348922274,136.3232567278106,3.7186214923858643,1.6750779151916504,1.5354934930801392,1.0,0.022150294855237007,0.004763432778418064,1.5532818053998199e-07,4.827440989174647e-06,-1.2016420214422396e-06,0.001051393453963101,4.0,1920.0,1080.0,90.0,0.0,0.0,50.0,-39.999996185302734,5.000004768371582,4.000001907348633,15.0,0.0,15.0,0.3499999940395355
313173.0,4089.0,344.65481015197764,154.67471343324007,387.9263554242207,170.45832740612337,382.9891549513899,167.42104319854212,348.24428776546944,170.45832740612337,353.58189076435843,165.3570514902086,387.9263554242207,162.36285548893065,379.58779555739676,159.67137954607404,344.65481015197764,162.71080904659226,350.06075048043243,157.67091525968283,384.58901427826163,154.67471343324007,4.827845573425293,2.0606582164764404,1.0880357027053833,0.08522727272727272,-0.0643543154001236,0.06773467361927032,-0.01422213576734066,-0.0005721710040234029,0.019374491646885872,-0.010577491484582424,4.0,1920.0,1080.0,90.0,0.0,0.0,50.0,-39.999996185302734,5.000004768371582,4.000001907348633,15.0,0.0,15.0,0.3499999940395355
313173.0,4090.0,961.6633089871864,635.8064637237835,998.5928764941677,704.8033130715304,988.790895030278,648.4210550015375,998.5928764941677,701.2129024663266,971.1492531421303,704.8033130715304,962.8510219006848,651.7524397123796,987.9217415164773,635.8064637237835,997.7992796276006,688.5362517831873,969.9988370920689,692.1575593721751,961.6633089871864,639.1639203227493,4.908750057220459,1.8559374809265137,1.2799999713897705,1.0,-0.01893392950296402,-0.05327072739601135,-6.1337868828559294e-06,-0.00011093175271525979,-4.535111293080263e-05,-0.016523374244570732,4.0,1920.0,1080.0,90.0,0.0,0.0,50.0,-39.999996185302734,5.000004768371582,4.000001907348633,15.0,0.0,15.0,0.3499999940395355
313173.0,4091.0,884.6257118597705,39.68761121055762,895.5692214295149,53.90598449469413,894.294554156767,47.684414677210945,895.5692214295149,52.995325172803966,886.6023175966722,53.90598449469413,885.4807662316383,48.577418338760715,893.4830449509619,39.68761121055762,894.7498621877234,44.88499768714883,885.7378831822945,45.79699229382017,884.6257118597705,40.58188472529219,4.538333415985107,1.8700960874557495,1.5373616218566895,1.0,-0.036116208881139755,0.1447150558233261,2.0356554159661755e-05,-0.0001446116075385362,-0.00015502750466112047,-0.018825151026248932,4.0,1920.0,1080.0,90.0,0.0,0.0,50.0,-39.999996185302734,5.000004768371582,4.000001907348633,15.0,0.0,15.0,0.3499999940395355
313173.0,4093.0,813.5486359440914,40.032473337051094,823.3937453704485,52.848526958752295,814.5565105154657,52.848526958752295,814.672063316,47.511780198933685,823.3567072656524,46.63912019023007,823.3937453704485,51.958461537761515,813.5486359440914,46.14829403921812,813.6821310777729,40.90612585537786,822.4022789622107,40.032473337051094,822.4226359558282,45.25718393079903,4.679999828338623,1.8799999952316284,1.2999999523162842,1.0,0.07039175182580948,-0.042818766087293625,1.171967505797511e-05,5.825128755532205e-05,0.0003152902936562896,-0.03542839735746384,4.0,1920.0,1080.0,90.0,0.0,0.0,50.0,-39.999996185302734,5.000004768371582,4.000001907348633,15.0,0.0,15.0,0.3499999940395355
313173.0,4095.0,1411.844796998905,243.11568811725974,1449.1531356622017,270.7585916415566,1424.1836973325248,255.75601062919083,1445.6190851074746,268.0017674225407,1433.0333407524672,270.7585916415566,1411.844796998905,258.40985828711604,1427.4408551645195,243.11568811725974,1449.1531356622017,255.15275352938923,1436.4634118763718,257.8962929793312,1415.0019329307042,245.756273665435,3.6688475608825684,1.664003849029541,1.5232137441635132,0.9661654135338346,0.8127710819244385,0.3648737668991089,-0.0006504604243673384,0.00022073941363487393,0.0018862844444811344,-0.0593951977789402,4.0,1920.0,1080.0,90.0,0.0,0.0,50.0,-39.999996185302734,5.000004768371582,4.000001907348633,15.0,0.0,15.0,0.3499999940395355
313174.0,3998.0,34.525713363754306,175.9736596573752,87.30541531625613,196.0559716639758,51.35018180142918,190.82159290976637,87.30541531625613,187.36414738606263,78.70361996501444,192.54971165805028,42.31422080622472,196.0559716639758,43.72135877645278,179.4391243505165,79.96309280982308,175.9736596573752,71.20859226546935,181.06530051101623,34.525713363754306,184.57989796540025,5.043785095214844,2.0999999046325684,1.640134572982788,0.4115384615384615,-0.032073426991701126,0.05150822177529335,-1.494023323059082,0.0006340405670925975,-0.06161471828818321,-5.43768510397058e-06,4.0,1920.0,1080.0,90.0,0.0,0.0,50.0,-39.999996185302734,5.000004768371582,4.000001907348633,15.0,0.0,15.0,0.3499999940395355
313174.0,4003.0,923.3847809544214,220.9257841648545,941.3974275899411,245.02930366891607,938.6178845842836,231.88673069322215,941.3974275899411,243.42818925819697,926.8554123676223,245.02930366891607,924.409386288712,233.44366557044282,937.7016049960465,220.9257841648545,940.4809357173401,232.2962784358123,925.8254291307345,233.90259399562427,923.3847809544214,222.48757279560843,3.8021926879882812,1.8799999952316284,1.4750006198883057,1.0,-0.007919942028820515,0.11217749863862991,-1.8325037956237793,-0.06719665974378586,-0.0011100174160674214,-6.304562703007832e-07,4.0,1920.0,1080.0,90.0,0.0,0.0,50.0,-39.999996185302734,5.000004768371582,4.000001907348633,15.0,0.0,15.0,0.3499999940395355
313174.0,4005.0,509.5639676966974,423.4789458953433,571.6678039517465,453.4129897687378,566.4291316196286,453.4129897687378,513.3193909842768,452.15231441805685,519.5923357061417,438.775462532709,571.6678039517465,440.1010448492872,563.3444955838133,438.1037109665627,509.5639676966974,436.7224626844241,515.9836931069749,423.4789458953433,568.7039512177956,424.92270159651235,4.639087677001953,2.1934540271759033,1.6781779527664185,0.004301075268817204,2.149925470352173,0.07589669525623322,-0.008703297935426235,0.0005235845455899835,-0.014224085956811905,0.030695779249072075,4.0,1920.0,1080.0,90.0,0.0,0.0,50.0,-39.999996185302734,5.000004768371582,4.000001907348633,15.0,0.0,15.0,0.3499999940395355
313174.0,4009.0,830.6815914645083,75.91208211602053,842.5270332262844,93.08138444929989,832.1762097412469,93.08138444929989,831.9502601711658,85.83385040562067,842.0854162546999,84.794166497673,842.5270332262844,92.01626815531614,830.8816497126011,84.05205525922449,830.6815914645083,76.95356651705754,840.8736568210907,75.91208211602053,841.2918373096106,82.98502373277381,4.993165969848633,1.9416874647140503,1.5796955823898315,1.0,0.020647097378969193,-0.22195036709308624,-1.0560187101364136,-0.15994387865066528,-0.002051756950095296,3.9403474261234805e-07,4.0,1920.0,1080.0,90.0,0.0,0.0,50.0,-39.999996185302734,5.000004768371582,4.000001907348633,15.0,0.0,15.0,0.3499999940395355
313174.0,2532.0,1079.3270885275995,943.7465417077221,1193.5193026728,1042.6842271684286,1088.3520820220224,966.850244288058,1189.220274451467,990.8911709244542,1183.9789608382357,1042.6842271684286,1079.3270885275995,1016.3236680039766,1089.240656336589,943.7465417077221,1193.5193026728,967.96391142247,1188.2725892390345,1020.6192096351716,1079.9446170207873,993.9724278411593,5.1992292404174805,2.6150190830230713,2.4768505096435547,1.0,0.009738042950630188,0.050998300313949585,-15.513404846191406,-0.0990663692355156,-0.07319192588329315,-4.558986984193325e-05,4.0,1920.0,1080.0,90.0,0.0,0.0,50.0,-39.999996185302734,5.000004768371582,4.000001907348633,15.0,0.0,15.0,0.3499999940395355
313174.0,4011.0,898.720161601359,237.1594317644782,917.1917986609232,263.69592104996644,914.4117763863911,246.9682327543157,917.1917986609232,262.0337852287062,902.1591543922029,263.69592104996644,899.8156960832549,248.572270171216,913.4167200005816,237.1594317644782,916.186242598656,252.03459182268438,901.0469977054611,253.70180949170768,898.720161601359,238.768126991928,4.679999828338623,1.8799999952316284,1.2999999523162842,1.0,-0.013281326740980148,0.0991719663143158,2.553070306777954,-0.10586879402399063,-0.0014893703628331423,2.068684580081026e-06,4.0,1920.0,1080.0,90.0,0.0,0.0,50.0,-39.999996185302734,5.000004768371582,4.000001907348633,15.0,0.0,15.0,0.3499999940395355
313174.0,2539.0,903.2205929652911,13.198311511061524,924.4495573202961,26.28386660822576,904.0866440029704,24.37500137239832,923.8331900258662,22.447369989453367,924.4495573202961,24.34179092367682,904.5697293729295,26.28386660822576,903.2205929652911,15.129932765700204,923.077969683762,13.198311511061524,923.6926603443682,15.040431065137623,903.7004962391271,16.98656643694581,4.519999980926514,1.9199999570846558,1.8871309757232666,0.9285714285714286,0.01234856154769659,-0.00042771760490722954,0.034858338534832,0.0004497060435824096,0.03311728313565254,6.698597303511633e-07,4.0,1920.0,1080.0,90.0,0.0,0.0,50.0,-39.999996185302734,5.000004768371582,4.000001907348633,15.0,0.0,15.0,0.3499999940395355
313174.0,4024.0,1255.3223640594972,140.40301034700275,1282.731560778055,160.38100824552245,1267.5930898286633,160.38100824552245,1255.3223640594972,149.6008785840484,1268.9745178503656,148.04818480340984,1281.602860108683,158.77755262089312,1268.651139462515,152.58530092854556,1256.291446646615,141.95722468808273,1270.010683208029,140.40301034700275,1282.731560778055,150.98015102702604,4.827845573425293,2.0606582164764404,1.0880357027053833,0.8928571428571429,-0.010379979386925697,-0.20039120316505432,2.275512456893921,0.04140325263142586,-0.00017279053281527013,-1.6155443063325947e-06,4.0,1920.0,1080.0,90.0,0.0,0.0,50.0,-39.999996185302734,5.000004768371582,4.000001907348633,15.0,0.0,15.0,0.3499999940395355
313174.0,4032.0,797.2762547999308,617.6787842142479,827.7859911458738,681.8406899556423,801.1363959370605,681.8406899556423,802.1248808778773,635.7044188082057,827.4666376526651,632.501622377668,827.7859911458738,678.4190543199691,797.2762547999308,666.9609878062156,798.4709554093887,620.9104019841707,824.1762491602902,617.6787842142479,824.3281757958594,663.5058574090123,4.538333415985107,1.8700960874557495,1.5373616218566895,1.0,0.0156781617552042,-0.0031968685798346996,2.2711148262023926,0.09752912819385529,0.001156893908046186,2.36421186627922e-07,4.0,1920.0,1080.0,90.0,0.0,0.0,50.0,-39.999996185302734,5.000004768371582,4.000001907348633,15.0,0.0,15.0,0.3499999940395355
313174.0,4035.0,971.1536054572706,687.9081088424991,1005.766553067245,750.8990902155955,997.2138023597867,703.0644328292607,1005.766553067245,747.296597036301,979.9588992497899,750.8990902155955,972.5336395045772,706.4539610591225,996.2193950605695,687.9081088424991,1004.8648606246359,732.1509420103764,978.6352387745219,735.7924725984161,971.1536054572706,691.3315962026373,3.7186214923858643,1.6750779151916504,1.5354934930801392,1.0,-0.01108761690557003,0.1263757348060608,-1.4857101632514969e-05,-0.00017982650024350733,-4.456464375834912e-05,0.0029758820310235023,4.0,1920.0,1080.0,90.0,0.0,0.0,50.0,-39.999996185302734,5.000004768371582,4.000001907348633,15.0,0.0,15.0,0.3499999940395355
313174.0,2558.0,867.970527669098,40.74740814824062,878.542623018859,53.96702166774877,877.4968303043186,47.40088008145038,878.542623018859,53.06463736905546,869.6301855151644,53.96702166774877,868.74944289085,48.28434810646151,876.7537336739865,40.74740814824062,877.789745202678,46.3082781181803,868.8401217706645,47.211755917297594,867.970527669098,41.63191192986142,4.908750057220459,1.8559374809265137,1.2799999713897705,0.9714285714285714,-0.007987754419445992,0.7319909930229187,-0.0734817162156105,0.30944013595581055,0.004384980536997318,-0.005700566340237856,4.0,1920.0,1080.0,90.0,0.0,0.0,50.0,-39.999996185302734,5.000004768371582,4.000001907348633,15.0,0.0,15.0,0.3499999940395355
313174.0,4036.0,554.7632553611716,407.0451958089585,602.0186211712567,431.1293285650277,561.790120563833,420.7749354325891,602.0186211712567,421.5577591817436,598.5860349233343,431.1293285650277,557.7728673147908,430.3831327290623,558.8656341792923,407.0451958089585,599.5351435252134,407.9041336935716,596.0304034184055,417.3848945781926,554.7632553611716,416.5614378381159,3.7186214923858643,1.6750779151916504,1.5354934930801392,1.0,-3.559755563735962,-0.14564450085163116,0.06233210861682892,0.009052096866071224,-0.12462504208087921,0.061801668256521225,4.0,1920.0,1080.0,90.0,0.0,0.0,50.0,-39.999996185302734,5.000004768371582,4.000001907348633,15.0,0.0,15.0,0.3499999940395355
313174.0,4037.0,218.852833419434,223.5008128392073,255.77026531956605,250.53725356609698,226.34483618938597,250.53725356609698,241.89881611038172,237.56266315943105,255.77026531956605,236.13955722744612,240.58711622630162,249.0705848894822,218.852833419434,237.68761320764278,234.7360102771816,224.93035470596507,248.73230626499026,223.5008128392073,233.22675245920445,236.21405344151185,3.9753477573394775,1.6926450729370117,1.6096727848052979,0.9360902255639098,-0.006887894123792648,0.22593814134597778,0.8732576966285706,-0.35566815733909607,-0.009295500814914703,3.7236329717416083e-06,4.0,1920.0,1080.0,90.0,0.0,0.0,50.0,-39.999996185302734,5.000004768371582,4.000001907348633,15.0,0.0,15.0,0.3499999940395355
313174.0,2564.0,1758.2441445878474,99.81380003898578,1802.3006469201503,125.80608770653126,1783.556929313928,125.80608770653126,1758.2441445878474,116.15497388889042,1769.4421811594877,114.76790824487104,1795.0181370394782,124.37449989108889,1790.7330308216665,110.55986190411804,1764.9953095046385,101.20048776472197,1776.294928940086,99.81380003898578,1802.3006469201503,109.1284969207531,4.519045829772949,1.7303744554519653,2.0264482498168945,0.4195804195804196,0.006165382452309132,0.4378063976764679,1.797194242477417,-0.1320134550333023,-0.0002454586501698941,-0.0008936814847402275,4.0,1920.0,1080.0,90.0,0.0,0.0,50.0,-39.999996185302734,5.000004768371582,4.000001907348633,15.0,0.0,15.0,0.3499999940395355
313174.0,4044.0,897.2756797576652,102.48351852317516,912.8229410921327,121.98909313474317,910.8748269922492,112.68501565006106,912.8229410921327,120.64925505297543,900.003510721769,121.98909313474317,898.3275159184926,113.99188316645282,909.9050257726832,102.48351852317516,911.8448167779959,110.27709963054876,898.93974238481,111.61991417379066,897.2756797576652,103.79317977348211,4.639087677001953,2.1934540271759033,1.6781779527664185,0.9875,0.015208372846245766,0.2014305591583252,-1.2359029054641724,-0.11120738834142685,-0.001217840937897563,-1.3397195743891643e-06,4.0,1920.0,1080.0,90.0,0.0,0.0,50.0,-39.999996185302734,5.000004768371582,4.000001907348633,15.0,0.0,15.0,0.3499999940395355
313174.0,2568.0,477.375344048343,82.27335109594274,510.32409639392296,101.27138346743374,481.0299661267115,100.85413289700703,501.30075958488527,92.15195298501982,510.32409639392296,92.52900318534805,490.1772366049137,101.27138346743374,477.375344048343,90.81307693176271,497.85071953012994,82.27335109594274,506.91779819686616,82.61707818290509,486.5673575604495,91.19592381792016,4.993165969848633,1.9416874647140503,1.5796955823898315,0.90625,0.0,0.0,0.0,0.0,0.0,0.0,4.0,1920.0,1080.0,90.0,0.0,0.0,50.0,-39.999996185302734,5.000004768371582,4.000001907348633,15.0,0.0,15.0,0.3499999940395355
313174.0,4054.0,937.4319390418157,18.55757707469339,960.6997752937461,29.015587734764296,960.6997752937461,26.85906383499175,938.6045476121834,29.015587734764296,937.9004601579717,27.106272570948935,959.8491366871863,24.96565653016423,960.3173621932758,20.41524331909589,938.1356180249778,22.574894641829307,937.4319390418157,20.701267092064544,959.4659859497383,18.55757707469339,4.908750057220459,1.8559374809265137,1.2799999713897705,0.48333333333333334,0.2752287983894348,0.006529101170599461,0.0006641485379077494,0.001153037534095347,-0.05031978711485863,1.4756619748368394e-05,4.0,1920.0,1080.0,90.0,0.0,0.0,50.0,-39.999996185302734,5.000004768371582,4.000001907348633,15.0,0.0,15.0,0.3499999940395355
313174.0,4057.0,1343.217292794285,191.5022159438983,1375.8990136048335,216.62403429199625,1357.2335288708189,201.488973729478,1373.721808613253,214.91672200354026,1359.30471251528,216.62403429199625,1343.217292794285,203.1359924245497,1359.2365930003116,191.5022159438983,1375.8990136048335,204.7256867743971,1361.383621510457,206.4360537422039,1345.127465384243,193.15196551187134,4.679999828338623,1.8799999952316284,1.2999999523162842,0.9705882352941176,-0.011850317008793354,0.11858939379453659,1.1246676445007324,-0.14550302922725677,-0.0001622895069885999,1.046163379214704e-05,4.0,1920.0,1080.0,90.0,0.0,0.0,50.0,-39.999996185302734,5.000004768371582,4.000001907348633,15.0,0.0,15.0,0.3499999940395355
313174.0,4062.0,791.2983529227853,764.0195036210048,829.3194082697644,846.0110473143716,794.5942803090086,846.0110473143716,796.5622428126061,778.8518702522717,829.1624269522894,774.6349847958787,829.3194082697644,841.4241890133417,791.2983529227853,835.565472924716,793.493283286506,768.2711300310864,826.4766313808065,764.0195036210048,826.4585565122659,830.9368047162864,4.827845573425293,2.0606582164764404,1.0880357027053833,1.0,0.027649210765957832,-0.599409282207489,0.36080703139305115,0.09862768650054932,-0.00188951357267797,2.212507570220623e-05,4.0,1920.0,1080.0,90.0,0.0,0.0,50.0,-39.999996185302734,5.000004768371582,4.000001907348633,15.0,0.0,15.0,0.3499999940395355
313174.0,4072.0,1142.791683191566,2.8818714842358752,1166.259596410946,13.72839601608904,1165.930048220666,11.28704195103263,1144.9077858655608,13.72839601608904,1142.791683191566,11.896930108818339,1163.6725536628658,9.473132945904906,1166.259596410946,4.657816987013404,1145.1538479398007,7.1052183082908735,1143.0277045154269,5.311626182362373,1163.9909396725088,2.8818714842358752,4.679999828338623,1.8799999952316284,1.2999999523162842,0.9818181818181818,-0.008524209260940552,-0.0071518379263579845,-0.004932401701807976,-0.022109167650341988,0.9382497668266296,0.01075850147753954,4.0,1920.0,1080.0,90.0,0.0,0.0,50.0,-39.999996185302734,5.000004768371582,4.000001907348633,15.0,0.0,15.0,0.3499999940395355
313174.0,4077.0,829.9524512695315,42.476820079173216,839.9486674281848,59.25295464875756,831.6100016442156,59.25295464875756,831.4336473082509,53.85772634599833,839.6297397435203,53.02883158332316,839.9486674281848,58.40766082614106,830.104012484895,48.553219440304474,829.9524512695315,43.30727152400321,838.2022258037322,42.476820079173216,838.4982505853579,47.70628843598718,4.519045829772949,1.7303744554519653,2.0264482498168945,1.0,-0.03088213875889778,0.9709929823875427,0.0663197785615921,-0.3627653121948242,-0.006145036779344082,-1.9741166397579946e-05,4.0,1920.0,1080.0,90.0,0.0,0.0,50.0,-39.999996185302734,5.000004768371582,4.000001907348633,15.0,0.0,15.0,0.3499999940395355
313174.0,4080.0,1193.2309094512516,67.49627336855366,1213.8877895369212,85.15868377100955,1203.2157885312488,76.02294924172922,1213.090658875518,83.99589279011967,1202.8668085755753,85.15868377100955,1193.2309094512516,77.1534275711889,1203.941455965275,67.49627336855366,1213.8877895369212,75.30252875383485,1203.6088819065965,76.46658032808755,1193.9040694362523,68.62790529991615,5.369193077087402,1.832708716392517,1.4150995016098022,0.23232323232323232,0.021008411422371864,0.0014223355101421475,0.00010135893535334617,1.9891313058906235e-06,8.096015449154947e-07,5.919748582527973e-05,4.0,1920.0,1080.0,90.0,0.0,0.0,50.0,-39.999996185302734,5.000004768371582,4.000001907348633,15.0,0.0,15.0,0.3499999940395355
313174.0,4084.0,1061.43465564038,-5.587395317450511,1082.4922855048833,7.228078603929321,1061.43465564038,5.478857143321661,1080.7176836851527,3.5993435992568252,1082.3643900139878,5.33481915164467,1062.9542922592932,7.228078603929321,1061.4470000147453,-3.7041574532836026,1080.8357049304736,-5.587395317450511,1082.4922855048833,-3.9037384725545636,1062.9751096675757,-2.006691284091384,4.519999980926514,1.9199999570846558,1.8871309757232666,,0.002431366126984358,0.003841612720862031,-3.373185464283779e-08,1.216865939568379e-06,1.5553128207557165e-07,-0.0005303517100401223,4.0,1920.0,1080.0,90.0,0.0,0.0,50.0,-39.999996185302734,5.000004768371582,4.000001907348633,15.0,0.0,15.0,0.3499999940395355
313174.0,4086.0,883.3933557331395,135.21402082860916,896.2970340614406,153.79200148578653,894.9103935723973,145.10104200478378,896.2970340614406,152.66225528909197,885.7246040771039,153.79200148578653,884.5324318009368,146.20654195593252,893.8387553446081,135.21402082860916,895.2142371268351,142.63790577650943,884.5718096635899,143.77045698737905,883.3933557331395,136.32217941105424,3.7186214923858643,1.6750779151916504,1.5354934930801392,1.0,0.017038900405168533,0.0041312589310109615,3.121500569136515e-08,-1.4680330195915303e-06,9.445489013160113e-06,-0.00032789644319564104,4.0,1920.0,1080.0,90.0,0.0,0.0,50.0,-39.999996185302734,5.000004768371582,4.000001907348633,15.0,0.0,15.0,0.3499999940395355
313174.0,4089.0,344.9209866714978,154.64849894069735,388.1882531919015,170.4279613769447,383.25381103760725,167.39342966488869,348.50810480251147,170.4279613769447,353.8429950128304,165.3284602937319,388.1882531919015,162.33699801255585,379.8547976605043,159.6433862361178,344.9209866714978,162.6800261450284,350.3241728942117,157.6419306918886,384.8532166766603,154.64849894069735,4.827845573425293,2.0606582164764404,1.0880357027053833,0.06802721088435375,-0.041472431272268295,0.04406443610787392,-0.014522900804877281,-0.00043085444485768676,0.017077839002013206,-0.005528096575289965,4.0,1920.0,1080.0,90.0,0.0,0.0,50.0,-39.999996185302734,5.000004768371582,4.000001907348633,15.0,0.0,15.0,0.3499999940395355
