frame_idx,id,l,t,r,b,pt0_x,pt0_y,pt1_x,pt1_y,pt2_x,pt2_y,pt3_x,pt3_y,pt4_x,pt4_y,pt5_x,pt5_y,pt6_x,pt6_y,pt7_x,pt7_y,physical_x,physical_y,physical_z,overlap,velocity_x,velocity_y,velocity_z,acceleration_x,acceleration_y,acceleration_z,number_of_wheels,camera_w,camera_h,camera_fov,camera_x,camera_y,camera_z,camera_pitch,camera_yaw,camera_roll,cloudyness,precipitation,sun_altitude_angle,wind_intensity
313171.0,4003.0,903.9506109749101,8.221744948310269,924.4878105723083,32.07506142822792,921.728592526136,22.730836080288988,924.4878105723083,30.377917382313722,907.6151848027799,32.07506142822792,905.3034521584133,24.377206979060247,920.5206192797161,8.221744948310269,923.2713394713974,15.537278558414686,906.2458077312078,17.23852363139914,903.9506109749101,9.871904793937485,3.8021926879882812,1.8799999952316284,1.4750006198883057,0.9916666666666667,-0.004404699895530939,0.007667340338230133,-1.7557011842727661,-0.18933992087841034,-0.0033465949818491936,-1.067396283360722e-06,4.0,1920.0,1080.0,90.0,0.0,0.0,25.0,-39.999996185302734,5.000004768371582,4.000001907348633,15.0,0.0,15.0,0.3499999940395355
313171.0,4007.0,373.18977232414807,847.562597714281,600.5263281229162,1063.60571824357,400.46692110833175,1017.6026420920141,560.8823458932558,877.398644889796,600.5263281229162,913.5522751167641,438.4327910397921,1063.60571824357,373.18977232414807,990.0593024872179,542.4622011340099,847.562597714281,582.9552101980528,884.0096100811165,411.6698089487048,1036.9136612857733,4.993165969848633,1.9416874647140503,1.5796955823898315,1.0,-0.21421872079372406,-0.5240161418914795,-3.5900697708129883,-0.7110213041305542,0.1811743676662445,-0.000106964391306974,4.0,1920.0,1080.0,90.0,0.0,0.0,25.0,-39.999996185302734,5.000004768371582,4.000001907348633,15.0,0.0,15.0,0.3499999940395355
313171.0,2532.0,1121.6944925186265,584.8733371474791,1300.3511266568596,722.8715481313837,1136.4549184384962,635.7517499643759,1288.6571046887111,664.3151781698579,1282.331475054704,722.8715481313837,1121.6944925186265,689.9729437173758,1140.167548286311,584.8733371474791,1300.3511266568596,612.4646793941528,1294.4217685875524,670.9273788175014,1124.8652681114652,638.839119612247,5.1992292404174805,2.6150190830230713,2.4768505096435547,0.999194847020934,0.14922499656677246,0.11800741404294968,-11.086620330810547,-0.03825287148356438,-0.3149428367614746,-6.539207970490679e-05,4.0,1920.0,1080.0,90.0,0.0,0.0,25.0,-39.999996185302734,5.000004768371582,4.000001907348633,15.0,0.0,15.0,0.3499999940395355
313171.0,4011.0,874.7348843358587,20.76513782238855,895.63591670434,45.73516265595338,893.1377093981835,33.842149942721264,895.63591670434,43.965502652418216,878.1015048644358,45.73516265595338,876.1941772743586,35.54448052608842,891.8140376982988,20.76513782238855,894.2861241695422,30.51077511171969,876.6064262192846,32.284580008465696,874.7348843358587,22.47121943423801,4.679999828338623,1.8799999952316284,1.2999999523162842,0.8666666666666667,-0.009583472274243832,0.18375304341316223,2.379262924194336,-0.27498042583465576,-0.003331209300085902,-2.4156861400115304e-06,4.0,1920.0,1080.0,90.0,0.0,0.0,25.0,-39.999996185302734,5.000004768371582,4.000001907348633,15.0,0.0,15.0,0.3499999940395355
313171.0,4014.0,1561.9276903692428,752.0014795684713,1820.7464885713114,919.8103856430226,1571.7964483903584,781.310642546493,1793.86346806895,864.8526858984254,1793.0111375179574,919.8103856430226,1561.9276903692428,827.9698190823864,1588.6246669643801,752.0014795684713,1820.3938499262047,835.7503873970852,1820.7464885713114,891.4427142779016,1579.1275607897828,799.0321801417884,5.369193077087402,1.832708716392517,1.4150995016098022,1.0,0.7118933796882629,-0.5517889261245728,18.944990158081055,0.47464069724082947,0.6626180410385132,-0.00011342489597154781,4.0,1920.0,1080.0,90.0,0.0,0.0,25.0,-39.999996185302734,5.000004768371582,4.000001907348633,15.0,0.0,15.0,0.3499999940395355
313171.0,4032.0,715.0263949726192,290.7177446391388,760.1868626319035,357.52790262834134,721.5780103326315,357.52790262834134,727.8142186998973,319.04686127316484,760.1868626319035,315.4151179241504,756.1159983398195,353.59647203259476,715.0263949726192,331.92994635341523,721.7929183337316,294.3799485895458,754.7610704502013,290.7177446391388,750.2430509072657,327.96161147608706,4.538333415985107,1.8700960874557495,1.5373616218566895,1.0,0.01633978635072708,-0.04963912442326546,2.13944149017334,0.31401994824409485,0.005359578412026167,-3.370725380591466e-06,4.0,1920.0,1080.0,90.0,0.0,0.0,25.0,-39.999996185302734,5.000004768371582,4.000001907348633,15.0,0.0,15.0,0.3499999940395355
313171.0,4035.0,941.1090138289053,351.98997513660544,986.7544168477825,423.0015859916585,976.4766142464473,379.0169451455265,986.7544168477825,418.69483705788616,951.8034742520789,423.0015859916585,943.5609906553211,383.00620398494095,974.714727099408,351.98997513660544,985.108231331758,390.8272617961755,949.378204320456,395.1803581347536,941.1090138289053,356.01757315778553,3.7186214923858643,1.6750779151916504,1.5354934930801392,1.0,-0.025775769725441933,0.3049813508987427,-9.177125321002677e-05,-0.0008106130408123136,-0.00027584502822719514,0.019768519327044487,4.0,1920.0,1080.0,90.0,0.0,0.0,25.0,-39.999996185302734,5.000004768371582,4.000001907348633,15.0,0.0,15.0,0.3499999940395355
313171.0,4037.0,88.78328876154374,-7.755641681371308,136.2725006441011,18.64636307433303,98.74344090086896,18.64636307433303,120.3065774875462,10.540093982507342,136.2725006441011,9.032242403682806,115.20234323835412,17.08858127417722,88.78328876154374,1.4374191191370718,110.8577162885696,-6.2417725116525755,126.98930691678913,-7.755641681371308,105.41829552266906,-0.12684097395054045,3.9753477573394775,1.6926450729370117,1.6096727848052979,,0.0037720901891589165,0.012872457504272461,2.479788303375244,0.3110658526420593,0.007072152569890022,1.6067124306573533e-05,4.0,1920.0,1080.0,90.0,0.0,0.0,25.0,-39.999996185302734,5.000004768371582,4.000001907348633,15.0,0.0,15.0,0.3499999940395355
313171.0,4062.0,687.4699610593536,411.80115012190555,747.8605523857094,496.94175357362724,693.6668890976475,496.94175357362724,704.3946474053392,436.3420855293474,747.8605523857094,431.31012043790736,741.0035592036604,491.3435117167108,687.4699610593536,476.7400639431961,698.8766243368983,416.8746855165466,743.0241335680615,411.80115012190555,735.6161601762194,471.08846052551735,4.827845573425293,2.0606582164764404,1.0880357027053833,1.0,-0.03864828869700432,-1.117987871170044,0.5378386974334717,0.15078362822532654,-0.03637517988681793,0.00018162593187298626,4.0,1920.0,1080.0,90.0,0.0,0.0,25.0,-39.999996185302734,5.000004768371582,4.000001907348633,15.0,0.0,15.0,0.3499999940395355
313171.0,4064.0,1320.403613685694,740.7925963872425,1504.3557805804369,884.4009320533548,1340.4415918706356,771.1532615776798,1488.7584189322986,837.1838155836009,1473.1561753381757,884.4009320533548,1320.403613685694,812.5678740162073,1350.0178354508835,740.7925963872425,1504.3557805804369,806.8821204987313,1488.8232279288684,854.5926733451054,1329.6589369152184,782.4622441195908,4.207873821258545,1.7498046159744263,1.4694602489471436,1.0,1.375022292137146,0.8256237506866455,-10.71263313293457,-1.0662075281143188,0.8539385795593262,0.0007377955480478704,4.0,1920.0,1080.0,90.0,0.0,0.0,25.0,-39.999996185302734,5.000004768371582,4.000001907348633,15.0,0.0,15.0,0.3499999940395355
313171.0,4090.0,930.8490350263332,308.24666789672597,978.2489181122556,379.77589373327635,966.8887356966751,329.936699832975,978.2489181122556,375.5166570858652,941.6229459983912,379.77589373327635,932.8932085372963,333.8193474726248,965.393718563276,308.24666789672597,976.8324894655312,352.90008801057604,939.5682893609925,357.19588752478836,930.8490350263332,312.1585539518902,4.908750057220459,1.8559374809265137,1.2799999713897705,1.0,-0.029215436428785324,-0.08725403249263763,-1.329661245108582e-05,-0.0004094387113582343,-0.00016980095824692398,-0.06671366840600967,4.0,1920.0,1080.0,90.0,0.0,0.0,25.0,-39.999996185302734,5.000004768371582,4.000001907348633,15.0,0.0,15.0,0.3499999940395355
313171.0,4095.0,1471.3869095608275,-1.4768611566057073,1517.4458330247292,25.511162308466947,1485.597636729093,15.800691246048649,1512.5463332687762,23.154275920902037,1498.0105371057427,25.511162308466947,1471.3869095608275,18.065103766974275,1490.0764941943103,-1.4768611566057073,1517.4458330247292,5.441910153222814,1502.7716636819312,7.761520142149836,1475.7333385007266,0.7518827386443641,3.6688475608825684,1.664003849029541,1.5232137441635132,0.7981366459627329,1.1769351959228516,0.5024298429489136,-0.001883090240880847,0.00022331210493575782,0.0022917166352272034,-0.20195326209068298,4.0,1920.0,1080.0,90.0,0.0,0.0,25.0,-39.999996185302734,5.000004768371582,4.000001907348633,15.0,0.0,15.0,0.3499999940395355
313173.0,4003.0,903.6202677330272,7.161456800276377,924.068635633644,30.905475714354647,921.3307854780082,21.621677331418386,924.068635633644,29.216129638823695,907.2644260976878,30.905475714354647,904.9704032439017,23.26070502209422,920.1244118980818,7.161456800276377,922.8536645784546,14.426688733102573,905.8977509318494,16.12009161053709,903.6202677330272,8.804233813463155,3.8021926879882812,1.8799999952316284,1.4750006198883057,1.0,-0.007398718502372503,0.06848232448101044,-1.7913382053375244,-0.07636167109012604,-0.0009520080056972802,-1.1429650612626574e-06,4.0,1920.0,1080.0,90.0,0.0,0.0,25.0,-39.999996185302734,5.000004768371582,4.000001907348633,15.0,0.0,15.0,0.3499999940395355
313173.0,4007.0,350.4266029456109,863.1715856388457,582.9828722570418,1084.6218437862399,379.0279448746368,1037.5990490743588,543.0461958181604,892.8070509065935,582.9828722570418,929.5955228977825,417.23775100246434,1084.6218437862399,350.4266029456109,1010.4882170961176,523.7144200863695,863.1715856388457,564.495076000227,900.2993172549101,389.124171285626,1058.4487111088833,4.993165969848633,1.9416874647140503,1.5796955823898315,1.0,0.017477160319685936,0.030104506760835648,-4.419737815856934,-0.08377145230770111,-6.724444392602891e-05,5.360729119274765e-05,4.0,1920.0,1080.0,90.0,0.0,0.0,25.0,-39.999996185302734,5.000004768371582,4.000001907348633,15.0,0.0,15.0,0.3499999940395355
313173.0,2532.0,1105.356469320506,583.7908866152061,1281.0919800757147,718.6360213613254,1119.170723507364,634.5232512942442,1270.4176490021375,660.226899420021,1265.0979059118956,718.6360213613254,1105.356469320506,688.9295561392588,1122.0024736147673,583.7908866152061,1281.0919800757147,608.5381381033218,1276.161979129643,666.831474994767,1107.6444973003508,637.9373550944472,5.1992292404174805,2.6150190830230713,2.4768505096435547,0.9998303934871099,0.18478776514530182,-0.170389786362648,-15.59384536743164,-0.31352749466896057,-0.18504159152507782,-1.2482969395932741e-05,4.0,1920.0,1080.0,90.0,0.0,0.0,25.0,-39.999996185302734,5.000004768371582,4.000001907348633,15.0,0.0,15.0,0.3499999940395355
313173.0,4011.0,874.5166606563753,19.63951606334973,895.3230232795305,44.461520777422606,892.8469866493226,32.673134659514176,895.3230232795305,42.70030400487209,877.8617229285637,44.461520777422606,875.9718629106354,34.36763696528018,891.5262643744101,19.63951606334973,893.9761950994315,29.291166686142798,876.370869796379,31.056472909440444,874.5166606563753,21.337720795552364,4.679999828338623,1.8799999952316284,1.2999999523162842,1.0,-0.013822189532220364,0.13733460009098053,2.456162691116333,-0.11666855216026306,-0.002081854734569788,-1.9049417687710957e-06,4.0,1920.0,1080.0,90.0,0.0,0.0,25.0,-39.999996185302734,5.000004768371582,4.000001907348633,15.0,0.0,15.0,0.3499999940395355
313173.0,4014.0,1539.1626099095943,741.6525749184793,1794.2809023144848,909.6523091832807,1551.564676233281,771.0274947268184,1768.9197786226364,856.5326179359765,1764.7703764547248,909.6523091832807,1539.1626099095943,815.9265214094861,1567.523686620405,741.6525749184793,1794.2809023144848,827.319956905621,1791.1246415879828,881.1134670321542,1555.3542721124143,786.8753679007048,5.369193077087402,1.832708716392517,1.4150995016098022,1.0,-0.28144192695617676,0.5879684686660767,13.884293556213379,-0.05904622748494148,0.04270246624946594,0.00010864891373785213,4.0,1920.0,1080.0,90.0,0.0,0.0,25.0,-39.999996185302734,5.000004768371582,4.000001907348633,15.0,0.0,15.0,0.3499999940395355
313173.0,4032.0,714.0913116812262,295.2299537502608,759.6924735624308,362.8463894595276,720.7176986602844,362.8463894595276,727.0563543502238,323.71379922495464,759.6924735624308,320.0457850341039,755.5556270542272,358.87266641601514,714.0913116812262,337.1273016635804,720.9713272602266,298.9291656396334,754.2128224763628,295.2299537502608,749.6199151203612,333.1157177882667,4.538333415985107,1.8700960874557495,1.5373616218566895,1.0,0.016033437103033066,-0.02344278059899807,2.2050490379333496,0.11745867878198624,0.0016098653431981802,1.8377085098109092e-06,4.0,1920.0,1080.0,90.0,0.0,0.0,25.0,-39.999996185302734,5.000004768371582,4.000001907348633,15.0,0.0,15.0,0.3499999940395355
313173.0,4035.0,941.1111502690551,352.0105061987814,986.7546756189962,422.9996067499081,976.4785450329115,379.0429778764376,986.7546756189962,418.69379439387825,951.8034962286301,422.9996067499081,943.5633942710865,383.03128465956,974.7160177322004,352.0105061987814,985.1076162709548,390.8187140858863,949.3777407799779,395.17076883195654,941.1111502690551,356.0370596592331,3.7186214923858643,1.6750779151916504,1.5354934930801392,1.0,-0.01702219247817993,0.20175553858280182,-3.806194581557065e-05,-0.0002825298288371414,-7.659222319489345e-05,0.005342744756489992,4.0,1920.0,1080.0,90.0,0.0,0.0,25.0,-39.999996185302734,5.000004768371582,4.000001907348633,15.0,0.0,15.0,0.3499999940395355
313173.0,4037.0,85.6708445973547,-6.741499750810212,133.4731804296197,19.78515690316178,95.7029656446762,19.78515690316178,117.44084673524144,11.61858048136968,133.4731804296197,10.103807269501031,112.23249879337895,18.2199883942836,85.6708445973547,2.5158532594826912,107.92598191610298,-5.220671433764221,124.12534720917581,-6.741499750810212,102.37797921038708,0.9441633803263498,3.9753477573394775,1.6926450729370117,1.6096727848052979,0.00641025641025641,-0.0035592461936175823,0.12389383465051651,1.756156325340271,-0.11873071640729904,-0.003992901649326086,-3.630594846981694e-06,4.0,1920.0,1080.0,90.0,0.0,0.0,25.0,-39.999996185302734,5.000004768371582,4.000001907348633,15.0,0.0,15.0,0.3499999940395355
313173.0,4062.0,685.5592655105237,420.02191571992313,746.9290016963931,507.0296659871539,691.8741746028148,507.0296659871539,702.9308472373109,444.7094396635473,746.9290016963931,439.62306699345856,739.8371532362366,501.3638176170066,685.5592655105237,486.7535204255331,697.3179958526549,425.1518158601959,742.0159693790799,420.02191571992313,734.3550568238129,481.03171948533117,4.827845573425293,2.0606582164764404,1.0880357027053833,1.0,0.008510642684996128,-0.836532711982727,0.4860304594039917,0.09518226981163025,-0.00547938933596015,3.960038156947121e-05,4.0,1920.0,1080.0,90.0,0.0,0.0,25.0,-39.999996185302734,5.000004768371582,4.000001907348633,15.0,0.0,15.0,0.3499999940395355
313173.0,4064.0,1299.7787554445363,732.4015367487451,1480.1243371041642,873.1647110273112,1320.0711498356045,762.6932784554714,1465.69528732164,826.6105041002909,1449.6770526200075,873.1647110273112,1299.7787554445363,803.636317719566,1328.708186681893,732.4015367487451,1480.1243371041642,796.3181416811337,1464.1118083983226,843.3361189770144,1308.053376663172,773.5832963149109,4.207873821258545,1.7498046159744263,1.4694602489471436,1.0,1.8278447389602661,-0.2185138314962387,-0.9373218417167664,-0.2912384867668152,0.6351646780967712,0.00027641825727187097,4.0,1920.0,1080.0,90.0,0.0,0.0,25.0,-39.999996185302734,5.000004768371582,4.000001907348633,15.0,0.0,15.0,0.3499999940395355
313173.0,4090.0,930.8459331634618,308.2014075374966,978.2467453625914,379.73758695207005,966.8857772913186,329.89175310068777,978.2467453625914,375.4796288653334,941.6196301881816,379.73758695207005,932.8890105407944,333.77317621542,965.3919692427746,308.2014075374966,976.83167536829,352.8631022290689,939.5662075615395,357.1575884703563,930.8459331634618,312.11203730641245,4.908750057220459,1.8559374809265137,1.2799999713897705,1.0,-0.01893392950296402,-0.05327072739601135,-6.1337868828559294e-06,-0.00011093175271525979,-4.535111293080263e-05,-0.016523374244570732,4.0,1920.0,1080.0,90.0,0.0,0.0,25.0,-39.999996185302734,5.000004768371582,4.000001907348633,15.0,0.0,15.0,0.3499999940395355
313173.0,4095.0,1471.4117777571596,-1.5947754729405392,1517.4623078808133,25.377802210459993,1485.6305442882488,15.685010525391563,1512.5941072856942,22.992245299773977,1498.0492121815034,25.377802210459993,1471.4117777571596,17.977487638772132,1490.078904621433,-1.5947754729405392,1517.4623078808133,5.276528496636454,1502.7788495557072,7.625396604237893,1475.7275473895672,0.6625953624345313,3.6688475608825684,1.664003849029541,1.5232137441635132,0.8074534161490683,0.8127710819244385,0.3648737668991089,-0.0006504604243673384,0.00022073941363487393,0.0018862844444811344,-0.0593951977789402,4.0,1920.0,1080.0,90.0,0.0,0.0,25.0,-39.999996185302734,5.000004768371582,4.000001907348633,15.0,0.0,15.0,0.3499999940395355
313174.0,4003.0,903.2963219871518,6.122872749499076,923.6576261997444,29.757146456062394,920.9407348473947,20.53529910266165,923.6576261997444,28.075384295958294,906.9204824102413,29.757146456062394,904.6438758386107,22.167183934606673,919.7358486921987,6.122872749499076,922.4440391192488,13.335950346018974,905.556378910574,15.021724565513825,903.2963219871518,7.758466739433863,3.8021926879882812,1.8799999952316284,1.4750006198883057,1.0,-0.007919942028820515,0.11217749863862991,-1.8325037956237793,-0.06719665974378586,-0.0011100174160674214,-6.304562703007832e-07,4.0,1920.0,1080.0,90.0,0.0,0.0,25.0,-39.999996185302734,5.000004768371582,4.000001907348633,15.0,0.0,15.0,0.3499999940395355
313174.0,4007.0,326.9222983900166,879.3230982559577,564.9810901965726,1106.4206982881717,356.91677105609136,1058.336604170552,524.761673839312,908.7591619831423,564.9810901965726,946.1987438236702,395.3485869940162,1106.4206982881717,326.9222983900166,1031.6687637116045,504.4756464497474,879.3230982559577,545.5311747482369,917.1480364836633,365.81004774411844,1080.779910501306,4.993165969848633,1.9416874647140503,1.5796955823898315,1.0,-0.03324755281209946,0.13923527300357819,-4.048670291900635,-0.022570157423615456,0.011351583525538445,-7.516219920944422e-05,4.0,1920.0,1080.0,90.0,0.0,0.0,25.0,-39.999996185302734,5.000004768371582,4.000001907348633,15.0,0.0,15.0,0.3499999940395355
313174.0,2532.0,1089.024791726126,583.0945243934799,1261.7906550427324,714.5978188020156,1101.7341460251707,633.7394888140715,1252.1097043830594,656.3858966782317,1247.9771740824071,714.5978188020156,1089.024791726126,688.3095174821082,1103.7097449865544,583.0945243934799,1261.7906550427324,604.8013891380219,1258.053062512281,662.8609036159675,1090.4644959717684,637.3878169885899,5.1992292404174805,2.6150190830230713,2.4768505096435547,0.9996516893068618,0.009738042950630188,0.050998300313949585,-15.513404846191406,-0.0990663692355156,-0.07319192588329315,-4.558986984193325e-05,4.0,1920.0,1080.0,90.0,0.0,0.0,25.0,-39.999996185302734,5.000004768371582,4.000001907348633,15.0,0.0,15.0,0.3499999940395355
313174.0,4011.0,874.3039683176174,18.541816927694452,895.0184013613915,43.223034233162,892.5636693681622,31.532924110225306,895.0184013613915,41.469968508588934,877.6283377275139,43.223034233162,875.7551849829849,33.21987081128126,891.2458364999774,18.541816927694452,893.6744851673278,28.105547811771928,876.1416083825108,29.86265242993396,874.3039683176174,20.232421859969783,4.679999828338623,1.8799999952316284,1.2999999523162842,1.0,-0.013281326740980148,0.0991719663143158,2.553070306777954,-0.10586879402399063,-0.0014893703628331423,2.068684580081026e-06,4.0,1920.0,1080.0,90.0,0.0,0.0,25.0,-39.999996185302734,5.000004768371582,4.000001907348633,15.0,0.0,15.0,0.3499999940395355
313174.0,4014.0,1517.4370809169066,731.8317673335205,1768.7200245334654,899.1990268738753,1531.829317323828,761.2564504507274,1744.492729220013,847.7249074270821,1737.6996478113829,899.1990268738753,1517.4370809169066,804.6428838101065,1546.9656212421762,731.8317673335205,1768.7200245334654,818.4095312878471,1762.745104901692,870.5003131318724,1532.694812512587,775.499960604433,5.369193077087402,1.832708716392517,1.4150995016098022,1.0,-0.16802211105823517,0.42791157960891724,10.788459777832031,-0.03861991688609123,0.09088311344385147,1.7908898371388204e-05,4.0,1920.0,1080.0,90.0,0.0,0.0,25.0,-39.999996185302734,5.000004768371582,4.000001907348633,15.0,0.0,15.0,0.3499999940395355
313174.0,4032.0,713.1544481346452,299.74233927725425,759.199166026043,368.1665181266962,719.8558638948384,368.1665181266962,726.2997766921181,328.37976320938446,759.199166026043,324.67563967014587,754.9939067143059,364.1506173359785,713.1544481346452,342.32740395588127,720.1509500415525,303.47841006062555,753.6656273725638,299.74233927725425,748.9952525019037,338.27266832715793,4.538333415985107,1.8700960874557495,1.5373616218566895,1.0,0.0156781617552042,-0.0031968685798346996,2.2711148262023926,0.09752912819385529,0.001156893908046186,2.36421186627922e-07,4.0,1920.0,1080.0,90.0,0.0,0.0,25.0,-39.999996185302734,5.000004768371582,4.000001907348633,15.0,0.0,15.0,0.3499999940395355
313174.0,4035.0,941.1124573091424,352.0229636968782,986.754784081606,422.9976221349895,976.4797258841064,379.05898933943394,986.754784081606,418.6924239485284,951.8034332576511,422.9976221349895,943.5648604919745,383.0466723965718,974.716800945168,352.0229636968782,985.1071781394753,390.8125029065103,949.3773794029462,395.16387552576896,941.1124573091424,356.0488335531635,3.7186214923858643,1.6750779151916504,1.5354934930801392,1.0,-0.01108761690557003,0.1263757348060608,-1.4857101632514969e-05,-0.00017982650024350733,-4.456464375834912e-05,0.0029758820310235023,4.0,1920.0,1080.0,90.0,0.0,0.0,25.0,-39.999996185302734,5.000004768371582,4.000001907348633,15.0,0.0,15.0,0.3499999940395355
313174.0,4037.0,82.38497070014004,-5.6661688227850115,130.52258099870693,20.984343024065677,92.49150327668858,20.984343024065677,114.42044550617322,12.76218466977488,130.52258099870693,11.240158551912712,109.0953846590878,19.411429334803252,82.38497070014004,3.650703233534137,104.83751504951367,-4.138046506502309,121.10808049226142,-5.6661688227850115,99.16799215399344,2.0712211848726714,3.9753477573394775,1.6926450729370117,1.6096727848052979,0.01282051282051282,-0.006887894123792648,0.22593814134597778,0.8732576966285706,-0.35566815733909607,-0.009295500814914703,3.7236329717416083e-06,4.0,1920.0,1080.0,90.0,0.0,0.0,25.0,-39.999996185302734,5.000004768371582,4.000001907348633,15.0,0.0,15.0,0.3499999940395355
313174.0,4062.0,683.6115776400688,428.3595129302642,745.9740253133747,517.2444013363305,690.0478118289125,517.2444013363305,701.4381405562161,453.2018667794801,745.9740253133747,448.0548871837484,738.6463399751692,511.5036442101371,683.6115776400688,496.8910699211522,695.7280247126871,433.55201195661016,740.982032813407,428.3595129302642,733.0664721966707,491.0917055649365,4.827845573425293,2.0606582164764404,1.0880357027053833,0.998533724340176,0.027649210765957832,-0.599409282207489,0.36080703139305115,0.09862768650054932,-0.00188951357267797,2.212507570220623e-05,4.0,1920.0,1080.0,90.0,0.0,0.0,25.0,-39.999996185302734,5.000004768371582,4.000001907348633,15.0,0.0,15.0,0.3499999940395355
313174.0,4064.0,1280.9402570994737,725.3023217672309,1457.9982222543154,863.0814218112837,1301.0561819688426,755.6308546751752,1444.5308652050228,817.0572352037426,1428.6548572900213,863.0814218112837,1280.9402570994737,796.2371481573782,1308.9409114627092,725.3023217672309,1457.9982222543154,786.6634172524047,1442.1008522255797,833.10634996581,1288.447783314012,766.1173011237079,4.207873821258545,1.7498046159744263,1.4694602489471436,1.0,0.1639159470796585,0.9838350415229797,-9.424162864685059,-0.516147255897522,0.18224653601646423,0.00010059717169497162,4.0,1920.0,1080.0,90.0,0.0,0.0,25.0,-39.999996185302734,5.000004768371582,4.000001907348633,15.0,0.0,15.0,0.3499999940395355
313174.0,4090.0,930.8442565956994,308.175407768034,978.2455632617351,379.71574620739005,966.8841197470225,329.86591603873836,978.2455632617351,375.4586276330187,941.6177756779638,379.71574620739005,932.8866194073158,333.74653503641724,965.3910936974569,308.175407768034,976.8313695560997,352.84215640597694,939.5651550354453,357.1357798136224,930.8442565956994,312.0852121442952,4.908750057220459,1.8559374809265137,1.2799999713897705,1.0,-0.012294298969209194,-0.03168031573295593,-2.88535920844879e-06,-6.186867540236562e-05,-2.616337951621972e-05,-0.008695804513990879,4.0,1920.0,1080.0,90.0,0.0,0.0,25.0,-39.999996185302734,5.000004768371582,4.000001907348633,15.0,0.0,15.0,0.3499999940395355
313174.0,4095.0,1471.426756426914,-1.6666124509953963,1517.4712684338067,25.295295941063358,1485.6508637354193,15.614513065513384,1512.624290783861,22.8904057948741,1498.0733410497,25.295295941063358,1471.426756426914,17.925913312623937,1490.0785519011322,-1.6666124509953963,1517.4712684338067,5.172598660118175,1502.7816306417405,7.541196401194862,1475.7217477162417,0.6100608388687785,3.6688475608825684,1.664003849029541,1.5232137441635132,0.8167701863354038,0.5417270064353943,0.24109670519828796,-9.095440327655524e-05,0.00016313166997861117,0.0013211769983172417,-0.03466130793094635,4.0,1920.0,1080.0,90.0,0.0,0.0,25.0,-39.999996185302734,5.000004768371582,4.000001907348633,15.0,0.0,15.0,0.3499999940395355
313175.0,4003.0,902.9784124931019,5.1051310886916585,923.2546200370303,28.6300939837042,920.5580104552923,19.470751005260237,923.2546200370303,26.955705087154783,906.5832371994032,28.6300939837042,904.3234714039639,21.09568991658295,919.3545410023968,5.1051310886916585,922.0423475258448,12.26520038680399,905.2216175870115,13.94355523165979,902.9784124931019,6.73373762544165,3.8021926879882812,1.8799999952316284,1.4750006198883057,1.0,-0.00859019160270691,0.14269961416721344,-1.8737401962280273,-0.06447780132293701,-0.0011653808178380132,9.698868552732165e-07,4.0,1920.0,1080.0,90.0,0.0,0.0,25.0,-39.999996185302734,5.000004768371582,4.000001907348633,15.0,0.0,15.0,0.3499999940395355
313175.0,4007.0,303.16222419990737,896.0724776289507,546.801028051528,1129.4670366796872,334.5485107103526,1080.5945167824548,505.8612146321857,925.2245171283078,546.801028051528,963.0615412910242,373.8134016260043,1129.4670366796872,303.16222419990737,1054.511002186378,484.6537931357577,896.0724776289507,526.4521895766024,934.3493647280981,342.89659422195257,1104.5123353118508,4.993165969848633,1.9416874647140503,1.5796955823898315,1.0,-0.5865871906280518,-0.3189251720905304,-9.268744468688965,-0.16858065128326416,0.22853726148605347,-3.43454084941186e-05,4.0,1920.0,1080.0,90.0,0.0,0.0,25.0,-39.999996185302734,5.000004768371582,4.000001907348633,15.0,0.0,15.0,0.3499999940395355
313175.0,2532.0,1072.6340065063303,582.50707957114,1242.6500836268926,710.9204152290945,1084.4175035314056,633.0743041169413,1233.933820544243,652.9437054645207,1230.782627991817,710.9204152290945,1072.6340065063303,687.744278081825,1085.5556153460047,582.50707957114,1242.6500836268926,601.4548869210421,1239.8879307334666,659.2440932446248,1073.2348715647001,636.8831312437079,5.1992292404174805,2.6150190830230713,2.4768505096435547,0.9996323529411765,-0.032544463872909546,0.03872820362448692,-13.718502044677734,-0.06666575372219086,-0.04631601646542549,-4.811399776372127e-06,4.0,1920.0,1080.0,90.0,0.0,0.0,25.0,-39.999996185302734,5.000004768371582,4.000001907348633,15.0,0.0,15.0,0.3499999940395355
313175.0,4011.0,874.0964488669551,17.46858411315056,894.7216603040679,42.01875993800123,892.287207564723,30.417834813800184,894.7216603040679,40.2736233331868,877.401128990692,42.01875993800123,875.5437216157719,32.097432521782,890.9722749095853,17.46858411315056,893.3806823386282,26.953336687971554,875.9184930471823,28.70246723755446,874.0964488669551,19.151800923705277,4.679999828338623,1.8799999952316284,1.2999999523162842,1.0,-0.011616474017500877,-0.05945426598191261,2.6323065757751465,-0.07042647898197174,-0.0008437996148131788,-2.8716260658256942e-06,4.0,1920.0,1080.0,90.0,0.0,0.0,25.0,-39.999996185302734,5.000004768371582,4.000001907348633,15.0,0.0,15.0,0.3499999940395355
313175.0,4014.0,1496.6944864471434,722.4485193489174,1743.9340652352553,888.6943139739944,1512.7084298267139,751.8998570122739,1720.7931837717597,838.7006379759218,1711.8074846775564,888.6943139739944,1496.6944864471434,793.9669284925229,1527.0660728303862,722.4485193489174,1743.9340652352553,809.3043555169986,1735.6180252710717,859.8633373565386,1511.0813685627288,764.7614661036304,5.369193077087402,1.832708716392517,1.4150995016098022,1.0,-0.10735952854156494,0.30451130867004395,8.58598518371582,-0.05059611797332764,0.09533033519983292,-9.870024769043084e-06,4.0,1920.0,1080.0,90.0,0.0,0.0,25.0,-39.999996185302734,5.000004768371582,4.000001907348633,15.0,0.0,15.0,0.3499999940395355
313175.0,4032.0,712.2149143476082,304.25657889406904,758.7065978231245,373.49108337391357,718.9916959420808,373.49108337391357,725.5440251791395,333.0463025662902,758.7065978231245,329.30630119996766,754.4301419742648,369.43320140202997,712.2149143476082,347.53316401912485,719.3312596454373,308.0292935835589,753.1190881166442,304.25657889406904,748.3683009897907,343.4354512172912,4.538333415985107,1.8700960874557495,1.5373616218566895,1.0,0.015254022553563118,0.009209602139890194,2.3365228176116943,0.08952739834785461,0.000890362833160907,-2.529313178456505e-06,4.0,1920.0,1080.0,90.0,0.0,0.0,25.0,-39.999996185302734,5.000004768371582,4.000001907348633,15.0,0.0,15.0,0.3499999940395355
313175.0,4035.0,941.1132479453859,352.0303439361874,986.7548094881753,422.9961120923116,976.4804110645905,379.0685647496639,986.7548094881753,418.6913295554234,951.8033418290423,422.9961120923116,943.565709881496,383.0558274071491,974.7172813968286,352.0303439361874,985.1069099001509,390.8084227062688,949.3771462338952,395.1593362338593,941.1132479453859,356.05575506235016,3.7186214923858643,1.6750779151916504,1.5354934930801392,1.0,-0.007636827416718006,0.07627461105585098,4.729640295408899e-06,-0.00011439239460742101,-6.56952106510289e-05,0.001741935731843114,4.0,1920.0,1080.0,90.0,0.0,0.0,25.0,-39.999996185302734,5.000004768371582,4.000001907348633,15.0,0.0,15.0,0.3499999940395355
313175.0,4037.0,78.85130097301472,-4.51041359781222,127.35444946083395,22.27303982100797,89.03798768022823,22.27303982100797,111.17845608064275,13.990766222141453,127.35444946083395,12.461427378844588,105.72057503503036,20.69230931571565,78.85130097301472,4.870329803196922,101.52229939646229,-2.9749113888472993,117.8682023927388,-4.51041359781222,95.71465778879664,3.28295622714281,3.9753477573394775,1.6926450729370117,1.6096727848052979,0.03273809523809524,-0.0072576990351080894,0.1786268800497055,0.7481474876403809,-0.3487738370895386,-0.009799095802009106,-5.7432521316513885e-06,4.0,1920.0,1080.0,90.0,0.0,0.0,25.0,-39.999996185302734,5.000004768371582,4.000001907348633,15.0,0.0,15.0,0.3499999940395355
313175.0,4062.0,681.5891894752172,436.8081450214165,745.0106512814673,527.569249775915,688.1449350016366,527.569249775915,699.9319606577736,461.7913198619799,745.0106512814673,456.59949355647507,737.3876992918522,521.7711031895857,681.5891894752172,507.13652398800986,694.1278033485542,442.0474215572166,739.942963071549,436.8081450214165,731.7120860229765,501.2771953087554,4.827845573425293,2.0606582164764404,1.0880357027053833,0.9972826086956522,-0.04351785033941269,-0.41472938656806946,0.5190054178237915,0.1009763553738594,-0.012763137929141521,1.7286809452343732e-05,4.0,1920.0,1080.0,90.0,0.0,0.0,25.0,-39.999996185302734,5.000004768371582,4.000001907348633,15.0,0.0,15.0,0.3499999940395355
313175.0,4064.0,1265.1051896006813,719.8246416667616,1439.387659544795,854.7391412978953,1284.8290808836202,750.161512504852,1426.7708059838117,808.9971009610913,1411.3076903802266,854.7391412978953,1265.1051896006813,790.6630808892953,1292.0305706903584,719.8246416667616,1439.387659544795,778.5388787261796,1423.8901923202911,824.6665262629408,1271.9233273183297,760.5143776336865,4.207873821258545,1.7498046159744263,1.4694602489471436,1.0,1.5062772035598755,0.8353398442268372,-7.691536903381348,-0.9076806306838989,0.998613178730011,-0.010168285109102726,4.0,1920.0,1080.0,90.0,0.0,0.0,25.0,-39.999996185302734,5.000004768371582,4.000001907348633,15.0,0.0,15.0,0.3499999940395355
313175.0,4090.0,930.8432311882513,308.16065637726985,978.2447975287536,379.7034525990397,966.8830823033383,329.85124285649056,978.2447975287536,375.4468457763727,941.616627015315,379.7034525990397,932.88516052955,333.7313717814176,965.390529198198,308.16065637726985,976.8311331680907,352.8304278214119,939.5644922943957,357.12352518485346,930.8432311882513,312.06995765540995,4.908750057220459,1.8559374809265137,1.2799999713897705,1.0,-0.00804145261645317,-0.01851794496178627,-6.275124775356744e-08,-3.548177483025938e-05,-7.56441440898925e-05,-0.004897777456790209,4.0,1920.0,1080.0,90.0,0.0,0.0,25.0,-39.999996185302734,5.000004768371582,4.000001907348633,15.0,0.0,15.0,0.3499999940395355
313175.0,4095.0,1471.435364743334,-1.7091881010940237,1517.4756239303156,25.245954321650956,1485.6629795003414,15.572685300198021,1512.6426903471472,22.82821483666606,1498.087762623384,25.245954321650956,1471.435364743334,17.89666077001002,1490.0769910997362,-1.7091881010940237,1517.4756239303156,5.109175776373874,1502.781925337816,7.490887215892536,1475.7166089942186,0.5803132905041417,3.6688475608825684,1.664003849029541,1.5232137441635132,0.8260869565217391,0.35808297991752625,0.15437088906764984,9.741273242980242e-05,0.00011394053581170738,0.0008918708772398531,-0.020921602845191956,4.0,1920.0,1080.0,90.0,0.0,0.0,25.0,-39.999996185302734,5.000004768371582,4.000001907348633,15.0,0.0,15.0,0.3499999940395355
313176.0,4003.0,902.6664163217882,4.1066043385258295,922.8575498831798,27.520674214945995,920.1824299798028,18.4264265916162,922.8575498831798,25.853655896500957,906.2506979133111,27.520674214945995,904.0090978146766,20.04441885212084,918.9802642992428,4.1066043385258295,921.6464596443074,11.210947252084956,904.8914232414123,12.881891185832085,902.6664163217882,5.728228205139663,3.8021926879882812,1.8799999952316284,1.4750006198883057,1.0,-0.007808696944266558,0.2802911400794983,-1.622353196144104,-0.03081611543893814,-0.0008651159587316215,1.1522986369527644e-06,4.0,1920.0,1080.0,90.0,0.0,0.0,25.0,-39.999996185302734,5.000004768371582,4.000001907348633,15.0,0.0,15.0,0.3499999940395355
313176.0,4007.0,278.9872875406474,913.3392110024664,528.3901710274494,1153.454810604961,311.9028694820907,1104.0235535316742,486.592480213455,942.2458445441126,528.3901710274494,980.2439440168308,352.18666404068904,1153.454810604961,278.9872875406474,1078.500962065905,464.3512818424824,913.3392110024664,507.0312058212469,951.8198928371487,319.7577920953082,1129.1509578046762,4.993165969848633,1.9416874647140503,1.5796955823898315,1.0,-0.05599500983953476,0.15437473356723785,-9.434051513671875,-0.02343134582042694,0.08215051889419556,3.304494748590514e-05,4.0,1920.0,1080.0,90.0,0.0,0.0,25.0,-39.999996185302734,5.000004768371582,4.000001907348633,15.0,0.0,15.0,0.3499999940395355
313176.0,2532.0,1056.1277211233225,582.5528576848378,1223.5491064611836,707.628133478688,1066.9945029300693,632.989912339036,1215.7765481974968,649.7907920255103,1213.840252688529,707.628133478688,1056.3616794272652,687.8926460631479,1067.2900394616117,582.5528576848378,1223.5491064611836,598.4593389033012,1222.0083433768787,656.0905252352678,1056.1277211233225,637.1609220760736,5.1992292404174805,2.6150190830230713,2.4768505096435547,0.9994239631336406,-0.004628940485417843,-0.20177413523197174,-17.239110946655273,-0.27759435772895813,-0.08101034164428711,1.4124951803751173e-06,4.0,1920.0,1080.0,90.0,0.0,0.0,25.0,-39.999996185302734,5.000004768371582,4.000001907348633,15.0,0.0,15.0,0.3499999940395355
313176.0,4011.0,873.8887356563531,16.39277747770447,894.4296848602971,40.83682350260011,892.010752797433,29.299141150903864,894.4296848602971,39.09937643598299,877.1784771771772,40.83682350260011,875.3318327565751,30.97161822110053,890.6990480237331,16.39277747770447,893.0920557321848,25.82473747826795,875.7002461500921,27.566137062248792,873.8887356563531,18.06883740888774,4.679999828338623,1.8799999952316284,1.2999999523162842,1.0,-0.006885096896439791,-0.42217496037483215,2.3775017261505127,0.0720246285200119,0.001241251127794385,4.051631094625918e-06,4.0,1920.0,1080.0,90.0,0.0,0.0,25.0,-39.999996185302734,5.000004768371582,4.000001907348633,15.0,0.0,15.0,0.3499999940395355
313176.0,4014.0,1476.8243681018,713.9451209371243,1719.7771489258598,878.1984057579199,1493.7809828832662,743.4550827194493,1697.6707027730927,829.4173861924669,1687.3636026828854,878.1984057579199,1476.8243681018,784.5040743136665,1507.4178807391568,713.9451209371243,1719.7771489258598,799.8948955534674,1710.0385821630025,849.1850400384167,1490.4312549173949,755.2016999123472,5.369193077087402,1.832708716392517,1.4150995016098022,1.0,-0.5803732872009277,0.7232712507247925,2.0974409580230713,-0.18569576740264893,-0.03533429652452469,-1.9514748146320926e-06,4.0,1920.0,1080.0,90.0,0.0,0.0,25.0,-39.999996185302734,5.000004768371582,4.000001907348633,15.0,0.0,15.0,0.3499999940395355
313176.0,4032.0,711.2731477762219,308.7736535715006,758.2141507806156,378.822304295076,718.1257633972709,378.822304295076,724.788373415898,337.71460836296313,758.2141507806156,333.93865601905463,753.8649994740061,374.7223013272864,711.2731477762219,352.7469529209763,718.5113839365334,312.5831017363812,752.572455297391,308.7736535715006,747.7396123024994,348.6061006822391,4.538333415985107,1.8700960874557495,1.5373616218566895,1.0,0.0152426203712821,0.015523206442594528,2.3889975547790527,0.08369173854589462,0.0011366251856088638,2.2488409285870148e-06,4.0,1920.0,1080.0,90.0,0.0,0.0,25.0,-39.999996185302734,5.000004768371582,4.000001907348633,15.0,0.0,15.0,0.3499999940395355
313176.0,4035.0,941.1134391324398,352.0320356308942,986.7547847533983,422.9957639578438,976.4805367053106,379.07075691729517,986.7547847533983,418.6911210773657,951.8032854028633,422.9957639578438,943.5658672529669,383.0578801588669,974.7174080220607,352.0320356308942,985.106869055909,390.80753519400935,949.3771078687234,395.15829719256135,941.1134391324398,356.05729680348037,3.7186214923858643,1.6750779151916504,1.5354934930801392,1.0,-0.003940187394618988,0.03124409168958664,1.664136675572081e-06,-0.00010031338024418801,-6.60618434267235e-06,0.001378799439407885,4.0,1920.0,1080.0,90.0,0.0,0.0,25.0,-39.999996185302734,5.000004768371582,4.000001907348633,15.0,0.0,15.0,0.3499999940395355
313176.0,4037.0,75.12359249498672,-3.2966622361046958,124.01097423765087,23.635075401171587,85.39703391352897,23.635075401171587,107.75713499540794,15.280716747831136,124.01097423765087,13.743645868878252,102.16251585120351,22.046081930145682,75.12359249498672,6.160356536502547,98.02161090038763,-1.7533504606540027,114.44696655861165,-3.2966622361046958,92.07161072784527,4.564633985628767,3.9753477573394775,1.6926450729370117,1.6096727848052979,0.04857142857142857,-0.0038131033070385456,0.05746141076087952,0.6929348111152649,-0.20799019932746887,-0.005832770839333534,2.6577210974210175e-06,4.0,1920.0,1080.0,90.0,0.0,0.0,25.0,-39.999996185302734,5.000004768371582,4.000001907348633,15.0,0.0,15.0,0.3499999940395355
313176.0,4062.0,679.5185087023565,445.3525042119849,744.0183136070718,538.0114333807992,686.198997825237,538.0114333807992,698.3929958336237,470.4827375599931,744.0183136070718,465.2400175535018,736.0929855501743,532.1491377904475,679.5185087023565,517.4993223974406,692.4907388271239,450.644742124579,738.8710204426093,445.3525042119849,730.3167263844493,511.5730951001628,4.827845573425293,2.0606582164764404,1.0880357027053833,0.9993206521739131,0.007838064804673195,-0.27784281969070435,-0.1647944152355194,0.0993577167391777,-0.004776577465236187,9.274145668314304e-06,4.0,1920.0,1080.0,90.0,0.0,0.0,25.0,-39.999996185302734,5.000004768371582,4.000001907348633,15.0,0.0,15.0,0.3499999940395355
313176.0,4064.0,1255.1066489815737,716.515093610566,1427.63308907645,849.5597561341746,1274.622537906908,746.8491172994487,1415.6580992043366,803.9649274203526,1400.4015620271464,849.5597561341746,1255.1066489815737,787.3104622157746,1281.2891043054085,716.515093610566,1427.63308907645,773.465187192449,1412.326726460783,819.4277450926053,1261.380159061266,757.1545240824349,4.207873821258545,1.7498046159744263,1.4694602489471436,1.0,1.8583383560180664,0.6251665353775024,-3.762118339538574,-1.1077263355255127,1.361257791519165,0.008025621064007282,4.0,1920.0,1080.0,90.0,0.0,0.0,25.0,-39.999996185302734,5.000004768371582,4.000001907348633,15.0,0.0,15.0,0.3499999940395355
313176.0,4090.0,930.8430667933169,308.15751746354414,978.2446211904725,379.7008083950375,966.8828441039673,329.8481206499088,978.2446211904725,375.44442017377617,941.6163597665281,379.7008083950375,932.8848212589322,333.7280400170294,965.3904750061728,308.15751746354414,976.8311597717006,352.82801693526307,939.5644179960426,357.12088888232574,930.8430667933169,312.0666030510882,4.908750057220459,1.8559374809265137,1.2799999713897705,1.0,-0.005287026055157185,-0.008150620386004448,2.862515202650684e-07,-2.8423502953955904e-05,9.718250112200622e-06,-0.0037302321288734674,4.0,1920.0,1080.0,90.0,0.0,0.0,25.0,-39.999996185302734,5.000004768371582,4.000001907348633,15.0,0.0,15.0,0.3499999940395355
313176.0,4095.0,1471.4401243635875,-1.733958055363003,1517.4774217148254,25.21708299667609,1485.6700205469417,15.548305125592456,1512.653701151493,22.790828975859924,1498.096185519141,25.21708299667609,1471.4401243635875,17.88061222332895,1490.0750612684417,-1.733958055363003,1517.4774217148254,5.071094118303084,1502.7810800533566,7.461495767418707,1475.712350680294,0.5640429297649119,3.6688475608825684,1.664003849029541,1.5232137441635132,0.8494983277591973,0.2361753284931183,0.09797561168670654,0.00013329957437235862,7.684008596697822e-05,0.0005887440056540072,-0.012304302304983139,4.0,1920.0,1080.0,90.0,0.0,0.0,25.0,-39.999996185302734,5.000004768371582,4.000001907348633,15.0,0.0,15.0,0.3499999940395355
313177.0,4003.0,902.3554336874197,3.112187792097472,922.4554142643603,26.393537915892193,919.8080779301298,17.38745401131808,922.4554142643603,24.734472446958403,905.9130426542029,26.393537915892193,903.6961440684305,18.997937213702244,918.60670424363,3.112187792097472,921.2448920366918,10.137832417810717,904.5556052483702,11.800791377092274,902.3554336874197,4.7262747894075305,3.8021926879882812,1.8799999952316284,1.4750006198883057,1.0,-0.010603590868413448,0.7762792110443115,-0.47744086384773254,0.16442786157131195,0.0024863011203706264,7.839481668270309e-07,4.0,1920.0,1080.0,90.0,0.0,0.0,25.0,-39.999996185302734,5.000004768371582,4.000001907348633,15.0,0.0,15.0,0.3499999940395355
313177.0,4007.0,254.27943569473095,931.1232562822659,509.76687722862073,1178.15989726365,288.81396162906253,1128.086191854684,467.1758754710976,959.7726915738933,509.76687722862073,997.9914138311567,330.0213039090352,1178.15989726365,254.27943569473095,1103.157928666023,443.844645400705,931.1232562822659,487.3366006531229,969.8681108331348,295.98175880788904,1154.5445627364668,4.993165969848633,1.9416874647140503,1.5796955823898315,1.0,0.015794571489095688,0.16928450763225555,-8.244085311889648,0.008178042247891426,0.06471389532089233,-6.0585112805711105e-05,4.0,1920.0,1080.0,90.0,0.0,0.0,25.0,-39.999996185302734,5.000004768371582,4.000001907348633,15.0,0.0,15.0,0.3499999940395355
313177.0,2532.0,1039.115495441082,582.9467091441079,1204.5410953250796,704.611555369887,1049.58773228304,633.3107814042775,1197.6936746347506,646.9781131350313,1197.0349831765257,704.611555369887,1040.1639014901364,688.394920672648,1049.0573105343217,582.9467091441079,1204.5410953250796,595.7463871445493,1204.2884488500993,653.1426229826698,1039.115495441082,637.7241052838666,5.1992292404174805,2.6150190830230713,2.4768505096435547,0.9992099545723879,-0.08259326964616776,0.0360824316740036,-16.446395874023438,-0.11537078768014908,-0.034212976694107056,-1.555835478939116e-05,4.0,1920.0,1080.0,90.0,0.0,0.0,25.0,-39.999996185302734,5.000004768371582,4.000001907348633,15.0,0.0,15.0,0.3499999940395355
313177.0,4011.0,873.673991285915,15.283544338821665,894.1343211918695,39.643685858700515,891.7253808441432,28.144750560178473,894.1343211918695,37.91400175813265,876.9542157303085,39.643685858700515,875.1124404510849,29.810037211214315,890.4174462782635,15.283544338821665,892.8006834252697,24.68784725698233,875.4809620723659,26.42143742446422,873.673991285915,16.952372513295774,4.679999828338623,1.8799999952316284,1.2999999523162842,1.0,-0.0036457350943237543,-0.7093651294708252,1.8000202178955078,0.24395456910133362,0.003043418051674962,-3.4172080631833524e-07,4.0,1920.0,1080.0,90.0,0.0,0.0,25.0,-39.999996185302734,5.000004768371582,4.000001907348633,15.0,0.0,15.0,0.3499999940395355
313177.0,4014.0,1457.7129064788871,706.0408860024764,1696.4159117706813,867.8912397879577,1475.267499425911,735.5543889288132,1675.301602292796,820.0683171971494,1664.1075511043757,867.8912397879577,1457.7129064788871,775.851810847786,1488.20522649508,706.0408860024764,1696.4159117706813,790.4840889253198,1685.711079897836,838.7722889711733,1470.5753474419353,746.5182138391434,5.369193077087402,1.832708716392517,1.4150995016098022,1.0,-0.1861070841550827,0.1693580597639084,0.33237871527671814,-0.08745946735143661,0.03867318108677864,-1.7146352547570132e-05,4.0,1920.0,1080.0,90.0,0.0,0.0,25.0,-39.999996185302734,5.000004768371582,4.000001907348633,15.0,0.0,15.0,0.3499999940395355
313177.0,4032.0,710.3300298755619,313.3040698464874,757.7186791906552,384.1710506993527,717.2589990852639,384.1710506993527,724.0290040723595,342.3968882070523,757.7186791906552,338.58377247324614,753.3002291034646,380.027481040478,710.3300298755619,357.97889971582055,717.6873845280538,317.1514540635437,752.0224724978502,313.3040698464874,747.1109012491279,353.793466670731,4.538333415985107,1.8700960874557495,1.5373616218566895,1.0,0.01109103299677372,0.08230172097682953,2.200761318206787,0.054938290268182755,0.0012231598375365138,3.015185257027042e-07,4.0,1920.0,1080.0,90.0,0.0,0.0,25.0,-39.999996185302734,5.000004768371582,4.000001907348633,15.0,0.0,15.0,0.3499999940395355
313177.0,4035.0,941.1136822599295,352.03446603214866,986.7547406449022,422.99515471581964,976.480719362249,379.0739377523856,986.7547406449022,418.6906819988729,951.803197172811,422.99515471581964,943.5661012543167,383.0608900646107,974.7175503877837,352.03446603214866,985.1067562850881,390.80607708728866,949.377002400111,395.15665287137836,941.1136822599295,356.05954207444216,3.7186214923858643,1.6750779151916504,1.5354934930801392,1.0,-0.0034041753970086575,0.0310734361410141,2.0783099898835644e-06,-5.945771022197732e-07,-1.0894630122493254e-06,3.206149995094165e-05,4.0,1920.0,1080.0,90.0,0.0,0.0,25.0,-39.999996185302734,5.000004768371582,4.000001907348633,15.0,0.0,15.0,0.3499999940395355
313177.0,4037.0,71.27185109822383,-2.047752729433242,120.55454943883487,25.045178872299346,81.63718482559501,25.045178872299346,104.22017251612523,16.607807877868133,120.55454943883487,15.062661354463096,98.48836722662645,23.447557867909573,71.27185109822383,7.496900576834648,94.40046888956499,-0.49628143663086755,110.90807305932617,-2.047752729433242,88.30744857023433,5.892457473780624,3.9753477573394775,1.6926450729370117,1.6096727848052979,0.03205128205128205,-0.00020446501730475575,-0.03570951893925667,0.7439073324203491,-0.10832048952579498,-0.002511895028874278,3.0955900456319796e-06,4.0,1920.0,1080.0,90.0,0.0,0.0,25.0,-39.999996185302734,5.000004768371582,4.000001907348633,15.0,0.0,15.0,0.3499999940395355
313177.0,4062.0,677.4155251600525,453.9815999126829,742.9986758469738,548.5665580851706,684.2245473060275,548.5665580851706,696.8222581233907,479.26441250001926,742.9986758469738,473.96434637999573,734.7771389012997,542.6325537880971,677.4155251600525,527.976639804831,690.8189362534021,459.3333094237342,737.7690771174755,453.9815999126829,728.8969064625851,521.9758598195442,4.827845573425293,2.0606582164764404,1.0880357027053833,0.9987105093488072,0.02823525294661522,-0.20375487208366394,-0.8650961518287659,0.1141357421875,-0.0019947518594563007,1.525683455838589e-05,4.0,1920.0,1080.0,90.0,0.0,0.0,25.0,-39.999996185302734,5.000004768371582,4.000001907348633,15.0,0.0,15.0,0.3499999940395355
313177.0,4064.0,1250.9342524922224,714.9928067520091,1422.7397838444197,847.4064860865468,1270.5397159405522,745.3055396935372,1411.1127572511807,801.9045303214159,1395.7214740225024,847.4064860865468,1250.9342524922224,785.7042967008211,1276.9052405190457,714.9928067520091,1422.7397838444197,771.4036737668089,1407.2790369867469,817.2706822409571,1256.892784464998,755.5693816114347,4.207873821258545,1.7498046159744263,1.4694602489471436,1.0,1.4078935384750366,0.33658555150032043,0.08238217979669571,-1.1068147420883179,1.470777988433838,0.002769166138023138,4.0,1920.0,1080.0,90.0,0.0,0.0,25.0,-39.999996185302734,5.000004768371582,4.000001907348633,15.0,0.0,15.0,0.3499999940395355
313177.0,4090.0,930.842791752949,308.152892488128,978.2443561115927,379.69695532718157,966.8824895471503,329.84351163719657,978.2443561115927,375.4408358613969,941.6159719860971,379.69695532718157,932.8843279719229,333.72317357166133,965.3903519934104,308.152892488128,976.8311510087092,352.82446404902095,939.5642720023343,357.117059104759,930.842791752949,312.06171330257104,4.908750057220459,1.8559374809265137,1.2799999713897705,1.0,-0.00424044206738472,-0.007681046612560749,1.8209998842166897e-08,-1.3355418104765704e-06,3.4362381029495737e-06,-9.337023948319256e-05,4.0,1920.0,1080.0,90.0,0.0,0.0,25.0,-39.999996185302734,5.000004768371582,4.000001907348633,15.0,0.0,15.0,0.3499999940395355
313177.0,4095.0,1471.4427238634246,-1.7481005397352214,1517.4779635671593,25.20044328734605,1485.6741130188702,15.53435720851856,1512.6602925256293,22.76855255416984,1498.1010834452054,25.20044328734605,1471.4427238634246,17.872179301005747,1490.0732640223266,-1.7481005397352214,1517.4779635671593,5.048428911443986,1502.7798916550519,7.44458403399544,1475.7090289989183,0.5555270342367783,3.6688475608825684,1.664003849029541,1.5232137441635132,0.8494983277591973,0.15572208166122437,0.06205013766884804,0.00011803190864156932,5.612551831291057e-05,0.0004244470037519932,-0.007789630442857742,4.0,1920.0,1080.0,90.0,0.0,0.0,25.0,-39.999996185302734,5.000004768371582,4.000001907348633,15.0,0.0,15.0,0.3499999940395355
313178.0,4003.0,902.0309919368848,2.0894122337494783,922.040071266885,25.21297153775901,919.4182468503121,16.31979411783455,922.040071266885,23.561423687267524,905.564594222606,25.21297153775901,903.3702245032317,17.923179588821526,918.2170356847695,2.0894122337494783,920.8294605482254,9.010769872224873,904.208477976028,10.66614432478961,902.0309919368848,3.696340784648825,3.8021926879882812,1.8799999952316284,1.4750006198883057,1.0,-0.009968292899429798,0.8557687401771545,-0.04554099217057228,0.26318421959877014,0.003278302261605859,-1.7421458551325486e-06,4.0,1920.0,1080.0,90.0,0.0,0.0,25.0,-39.999996185302734,5.000004768371582,4.000001907348633,15.0,0.0,15.0,0.3499999940395355
313178.0,4007.0,229.51640521933825,949.5414615391395,491.1838491560443,1204.0985062464845,265.66983445275076,1153.693818672504,447.36003000624214,977.8323006760418,491.1838491560443,1016.0064026401683,308.43050351669365,1204.0985062464845,229.51640521933825,1129.5372327491548,422.9769519165771,949.5414615391395,467.7552141600109,988.2929995168382,272.8339218170698,1181.3600077832048,4.993165969848633,1.9416874647140503,1.5796955823898315,1.0,-0.5534266233444214,-0.34076830744743347,-13.013218879699707,-0.1395447850227356,0.2824226915836334,-5.4250049288384616e-05,4.0,1920.0,1080.0,90.0,0.0,0.0,25.0,-39.999996185302734,5.000004768371582,4.000001907348633,15.0,0.0,15.0,0.3499999940395355
313178.0,2532.0,1022.0609109102702,583.4218642990545,1186.5244906021128,702.0091542600338,1032.378154699257,633.7224850234777,1179.8265288924563,644.6061810987567,1180.1807980015549,702.0091542600338,1023.9262527427086,688.9230961571631,1031.0315485270773,583.4218642990545,1185.7679069868418,593.4628446786068,1186.5244906021128,650.599778212406,1022.0609109102702,638.30370144941,5.1992292404174805,2.6150190830230713,2.4768505096435547,1.0,-0.06532172858715057,0.04884970933198929,-14.224989891052246,-0.07439032196998596,-0.01988719403743744,9.815961675485596e-06,4.0,1920.0,1080.0,90.0,0.0,0.0,25.0,-39.999996185302734,5.000004768371582,4.000001907348633,15.0,0.0,15.0,0.3499999940395355
313178.0,4011.0,873.4491891521873,14.120674359551781,893.8263027379422,38.40217422869687,891.4267383773138,26.93416098748833,893.8263027379422,36.68045603615452,876.7205863736165,38.40217422869687,874.882761738109,28.592075633038732,890.1227958379782,14.120674359551781,892.4969094226603,23.505667812038705,875.2525734788994,25.23124956380635,873.4491891521873,15.782092853957984,4.679999828338623,1.8799999952316284,1.2999999523162842,1.0,0.003800374688580632,-0.6456068754196167,1.1138932704925537,0.3176770508289337,0.0050325579941272736,-9.628633961256128e-06,4.0,1920.0,1080.0,90.0,0.0,0.0,25.0,-39.999996185302734,5.000004768371582,4.000001907348633,15.0,0.0,15.0,0.3499999940395355
313178.0,4014.0,1438.9820879730833,698.355656969762,1673.5257233676696,857.7739081372631,1457.040992597694,727.839328506957,1653.3548040600263,810.816297172915,1641.3936409907571,857.7739081372631,1438.9820879730833,767.476308100336,1469.3111541311075,698.355656969762,1673.5257233676696,781.2141561804888,1661.982288236013,828.6005184841497,1451.1363571526651,738.1505491852092,5.369193077087402,1.832708716392517,1.4150995016098022,1.0,-0.21658924221992493,-0.17227353155612946,-0.09963711351156235,0.03002072498202324,-0.0450625866651535,-7.249574537127046e-06,4.0,1920.0,1080.0,90.0,0.0,0.0,25.0,-39.999996185302734,5.000004768371582,4.000001907348633,15.0,0.0,15.0,0.3499999940395355
313178.0,4032.0,709.3637190146168,317.95683130612866,757.2105323037742,389.64516565699364,716.3702039877077,389.64516565699364,723.2507779718604,347.20890788667964,757.2105323037742,343.35649411902546,752.7215726218394,385.4554299324893,709.3637190146168,363.3294421048515,716.8438018007282,321.84423987199915,751.4591469106717,317.95683130612866,746.467286986413,359.0968713768794,4.538333415985107,1.8700960874557495,1.5373616218566895,1.0,-0.005271211266517639,0.3700556755065918,1.3764593601226807,-0.12516547739505768,-0.0022539403289556503,-2.8099125870539865e-07,4.0,1920.0,1080.0,90.0,0.0,0.0,25.0,-39.999996185302734,5.000004768371582,4.000001907348633,15.0,0.0,15.0,0.3499999940395355
313178.0,4035.0,941.1138954095851,352.0364900639349,986.7547209448762,422.99465330201537,976.4808869121521,379.07658876712213,986.7547209448762,418.69031942277303,951.8031382467224,422.99465330201537,943.566309435489,383.0634014827119,974.7176818239386,352.0364900639349,985.106676715855,390.80486360838086,949.3769263390717,395.15528730621037,941.1138954095851,356.06141479049023,3.7186214923858643,1.6750779151916504,1.5354934930801392,1.0,-0.0024634161964058876,0.02368885651230812,1.7833348238127655e-06,-1.6681266060913913e-05,-1.6309048760376754e-06,0.00023294177663046867,4.0,1920.0,1080.0,90.0,0.0,0.0,25.0,-39.999996185302734,5.000004768371582,4.000001907348633,15.0,0.0,15.0,0.3499999940395355
313178.0,4037.0,67.35011915979617,-0.779740232001604,117.0361898955472,26.482320688980007,77.81056114753622,26.482320688980007,100.62020364648373,17.954804764131033,117.0361898955472,16.401583229603876,94.74855951533424,24.87607082110542,67.35011915979617,8.85975574730614,90.71334255940923,0.7799024857314848,107.30432249404305,-0.779740232001604,84.47447142189235,7.246577336035119,3.9753477573394775,1.6926450729370117,1.6096727848052979,0.06857142857142857,0.0015934915281832218,-0.08838727325201035,1.230942964553833,-0.01514748577028513,-0.0002234399289591238,-8.2611422840273e-06,4.0,1920.0,1080.0,90.0,0.0,0.0,25.0,-39.999996185302734,5.000004768371582,4.000001907348633,15.0,0.0,15.0,0.3499999940395355
313178.0,4062.0,675.2396494772971,462.694385826712,741.9707173565548,559.2191281404926,682.1758503837113,559.2191281404926,695.2393052835449,488.1113318449301,741.9707173565548,482.7713323326796,733.39371072235,553.2330652544905,675.2396494772971,538.553257209037,689.1377386663543,468.0881129822541,736.6618209982064,462.694385826712,727.4112294173381,532.4976377311372,4.827845573425293,2.0606582164764404,1.0880357027053833,0.9974747474747475,-0.04002431407570839,-0.136214941740036,-0.7257111668586731,0.10774532705545425,-0.01189748477190733,4.402197646413697e-06,4.0,1920.0,1080.0,90.0,0.0,0.0,25.0,-39.999996185302734,5.000004768371582,4.000001907348633,15.0,0.0,15.0,0.3499999940395355
313178.0,4064.0,1250.5956374807934,714.8681029113086,1422.3438195896113,847.2397127011146,1270.2167689153862,745.1668379627918,1410.74984428349,801.7339665823424,1395.335610135276,847.2397127011146,1250.5956374807934,785.5713448198251,1276.5515386081127,714.8681029113086,1422.3438195896113,771.2469015350856,1406.8574668842955,817.1196851044489,1256.5214020514527,755.4523078161808,4.207873821258545,1.7498046159744263,1.4694602489471436,1.0,-0.8262938261032104,-0.914787769317627,0.05081985890865326,-0.25646376609802246,0.3086259663105011,0.0006074844277463853,4.0,1920.0,1080.0,90.0,0.0,0.0,25.0,-39.999996185302734,5.000004768371582,4.000001907348633,15.0,0.0,15.0,0.3499999940395355
313178.0,4090.0,930.8425542096628,308.1491452131181,978.244138183345,379.6938237350571,966.8822008042177,329.83978101770487,978.244138183345,375.4379052446768,941.615653396131,379.6938237350571,932.8839267525204,333.7192504092456,965.3902374876134,308.1491452131181,976.8311261850831,352.82155340066083,939.5641349518385,357.11394143471546,930.8425542096628,312.05776802391136,4.908750057220459,1.8559374809265137,1.2799999713897705,1.0,-0.002920160535722971,-0.005594183225184679,-6.368897231823212e-08,-5.729708391299937e-06,4.5296765165403485e-06,-0.0006045057089067996,4.0,1920.0,1080.0,90.0,0.0,0.0,25.0,-39.999996185302734,5.000004768371582,4.000001907348633,15.0,0.0,15.0,0.3499999940395355
313178.0,4095.0,1471.4440957004133,-1.7560814474845154,1517.4779145131115,25.190986031067865,1485.6764646780798,15.52646456589541,1512.6642040414688,22.75536575659237,1498.1038841496018,25.190986031067865,1471.4440957004133,17.867935229246054,1490.0717600895161,-1.7560814474845154,1517.4779145131115,5.035031497465466,1502.7787070642844,7.434993780531274,1475.706524040424,0.5512688498910554,3.6688475608825684,1.664003849029541,1.5232137441635132,0.8461538461538461,0.1026340201497078,0.03932495042681694,9.092928667087108e-05,3.5016575566260144e-05,0.00026263404288329184,-0.004167062230408192,4.0,1920.0,1080.0,90.0,0.0,0.0,25.0,-39.999996185302734,5.000004768371582,4.000001907348633,15.0,0.0,15.0,0.3499999940395355
313179.0,4003.0,901.6957631113033,1.0296836654252284,921.6137078033335,24.008051399313416,919.0152296701021,15.21255195178117,921.6137078033335,22.364173846492154,905.2072646624899,24.008051399313416,903.0329934123793,16.808696618380655,917.8147560516028,1.0296836654252284,920.4036469215467,7.862567532607017,903.8530581144047,9.510205247818217,901.6957631113033,2.629310888904068,3.8021926879882812,1.8799999952316284,1.4750006198883057,1.0,-0.006284384988248348,0.4549046754837036,-0.02751840464770794,0.1820089966058731,0.0024661931674927473,-6.354709967126837e-07,4.0,1920.0,1080.0,90.0,0.0,0.0,25.0,-39.999996185302734,5.000004768371582,4.000001907348633,15.0,0.0,15.0,0.3499999940395355
